[
  {
    "id": 1,
    "name": "Dharampeth Plastic Recycling Center",
    "type": "plastic",
    "state": "Maharashtra",
    "district": "Nagpur",
    "city": "Nagpur",
    "pincode": "440010",
    "lat": 21.108019,
    "lng": 79.035749,
    "address": "Dharampeth, Nagpur, Maharashtra, India",
    "phone": "+91 9931565564",
    "rating": 3.9,
    "verified": false
  },
  {
    "id": 2,
    "name": "Manewada Glass Recycling Center",
    "type": "glass",
    "state": "Maharashtra",
    "district": "Nagpur",
    "city": "Nagpur",
    "pincode": "440024",
    "lat": 21.208685,
    "lng": 79.177788,
    "address": "Manewada, Nagpur, Maharashtra, India",
    "phone": "+91 9295901811",
    "rating": 3.7,
    "verified": false
  },
  {
    "id": 3,
    "name": "Mahal Paper Recycling Center",
    "type": "paper",
    "state": "Maharashtra",
    "district": "Nagpur",
    "city": "Nagpur",
    "pincode": "440002",
    "lat": 21.231286,
    "lng": 79.160786,
    "address": "Mahal, Nagpur, Maharashtra, India",
    "phone": "+91 9309520465",
    "rating": 4.7,
    "verified": true
  },
  {
    "id": 4,
    "name": "Dharampeth Glass Recycling Center",
    "type": "glass",
    "state": "Maharashtra",
    "district": "Nagpur",
    "city": "Nagpur",
    "pincode": "440010",
    "lat": 21.231779,
    "lng": 79.198636,
    "address": "Dharampeth, Nagpur, Maharashtra, India",
    "phone": "+91 9370862926",
    "rating": 4.0,
    "verified": true
  },
  {
    "id": 5,
    "name": "Itwari Glass Recycling Center",
    "type": "glass",
    "state": "Maharashtra",
    "district": "Nagpur",
    "city": "Nagpur",
    "pincode": "440002",
    "lat": 21.126509,
    "lng": 78.970374,
    "address": "Itwari, Nagpur, Maharashtra, India",
    "phone": "+91 9266761145",
    "rating": 5.0,
    "verified": false
  },
  {
    "id": 6,
    "name": "Nandanvan Plastic Recycling Center",
    "type": "plastic",
    "state": "Maharashtra",
    "district": "Nagpur",
    "city": "Nagpur",
    "pincode": "440009",
    "lat": 21.053691,
    "lng": 79.168907,
    "address": "Nandanvan, Nagpur, Maharashtra, India",
    "phone": "+91 9243491915",
    "rating": 3.7,
    "verified": true
  },
  {
    "id": 7,
    "name": "Sitabuldi Plastic Recycling Center",
    "type": "plastic",
    "state": "Maharashtra",
    "district": "Nagpur",
    "city": "Nagpur",
    "pincode": "440012",
    "lat": 21.053027,
    "lng": 79.062071,
    "address": "Sitabuldi, Nagpur, Maharashtra, India",
    "phone": "+91 9808763175",
    "rating": 4.4,
    "verified": true
  },
  {
    "id": 8,
    "name": "Itwari Plastic Recycling Center",
    "type": "plastic",
    "state": "Maharashtra",
    "district": "Nagpur",
    "city": "Nagpur",
    "pincode": "440002",
    "lat": 21.068187,
    "lng": 79.045093,
    "address": "Itwari, Nagpur, Maharashtra, India",
    "phone": "+91 9665197872",
    "rating": 4.4,
    "verified": false
  },
  {
    "id": 9,
    "name": "Sadar Scrap Recycling Center",
    "type": "scrap",
    "state": "Maharashtra",
    "district": "Nagpur",
    "city": "Nagpur",
    "pincode": "440001",
    "lat": 21.060302,
    "lng": 79.161147,
    "address": "Sadar, Nagpur, Maharashtra, India",
    "phone": "+91 9633258438",
    "rating": 4.8,
    "verified": false
  },
  {
    "id": 10,
    "name": "Pratap Nagar Ewaste Recycling Center",
    "type": "ewaste",
    "state": "Maharashtra",
    "district": "Nagpur",
    "city": "Nagpur",
    "pincode": "440022",
    "lat": 21.082795,
    "lng": 79.059853,
    "address": "Pratap Nagar, Nagpur, Maharashtra, India",
    "phone": "+91 9123463311",
    "rating": 4.6,
    "verified": false
  },
  {
    "id": 11,
    "name": "Pratap Nagar Paper Recycling Center",
    "type": "paper",
    "state": "Maharashtra",
    "district": "Nagpur",
    "city": "Nagpur",
    "pincode": "440022",
    "lat": 21.092402,
    "lng": 78.997871,
    "address": "Pratap Nagar, Nagpur, Maharashtra, India",
    "phone": "+91 9364829088",
    "rating": 3.7,
    "verified": true
  },
  {
    "id": 12,
    "name": "Dharampeth Ewaste Recycling Center",
    "type": "ewaste",
    "state": "Maharashtra",
    "district": "Nagpur",
    "city": "Nagpur",
    "pincode": "440010",
    "lat": 21.201148,
    "lng": 78.99475,
    "address": "Dharampeth, Nagpur, Maharashtra, India",
    "phone": "+91 9890372683",
    "rating": 4.3,
    "verified": false
  },
  {
    "id": 13,
    "name": "Kamptee Road Paper Recycling Center",
    "type": "paper",
    "state": "Maharashtra",
    "district": "Nagpur",
    "city": "Nagpur",
    "pincode": "440026",
    "lat": 21.083931,
    "lng": 79.03962,
    "address": "Kamptee Road, Nagpur, Maharashtra, India",
    "phone": "+91 9618037584",
    "rating": 4.2,
    "verified": false
  },
  {
    "id": 14,
    "name": "Manewada Metal Recycling Center",
    "type": "metal",
    "state": "Maharashtra",
    "district": "Nagpur",
    "city": "Nagpur",
    "pincode": "440024",
    "lat": 21.182326,
    "lng": 79.029937,
    "address": "Manewada, Nagpur, Maharashtra, India",
    "phone": "+91 9930374282",
    "rating": 4.6,
    "verified": false
  },
  {
    "id": 15,
    "name": "Jaripatka Ewaste Recycling Center",
    "type": "ewaste",
    "state": "Maharashtra",
    "district": "Nagpur",
    "city": "Nagpur",
    "pincode": "440014",
    "lat": 21.119304,
    "lng": 79.146741,
    "address": "Jaripatka, Nagpur, Maharashtra, India",
    "phone": "+91 9863059344",
    "rating": 4.1,
    "verified": false
  },
  {
    "id": 16,
    "name": "Wardhaman Nagar Paper Recycling Center",
    "type": "paper",
    "state": "Maharashtra",
    "district": "Nagpur",
    "city": "Nagpur",
    "pincode": "440008",
    "lat": 21.1217,
    "lng": 79.066782,
    "address": "Wardhaman Nagar, Nagpur, Maharashtra, India",
    "phone": "+91 9274162473",
    "rating": 3.6,
    "verified": true
  },
  {
    "id": 17,
    "name": "Kamptee Road Ewaste Recycling Center",
    "type": "ewaste",
    "state": "Maharashtra",
    "district": "Nagpur",
    "city": "Nagpur",
    "pincode": "440026",
    "lat": 21.068114,
    "lng": 78.984029,
    "address": "Kamptee Road, Nagpur, Maharashtra, India",
    "phone": "+91 9627930472",
    "rating": 4.3,
    "verified": false
  },
  {
    "id": 18,
    "name": "Itwari Scrap Recycling Center",
    "type": "scrap",
    "state": "Maharashtra",
    "district": "Nagpur",
    "city": "Nagpur",
    "pincode": "440002",
    "lat": 21.055817,
    "lng": 78.999374,
    "address": "Itwari, Nagpur, Maharashtra, India",
    "phone": "+91 9411964840",
    "rating": 4.4,
    "verified": true
  },
  {
    "id": 19,
    "name": "Itwari Metal Recycling Center",
    "type": "metal",
    "state": "Maharashtra",
    "district": "Nagpur",
    "city": "Nagpur",
    "pincode": "440002",
    "lat": 21.08013,
    "lng": 79.048356,
    "address": "Itwari, Nagpur, Maharashtra, India",
    "phone": "+91 9261116978",
    "rating": 4.8,
    "verified": true
  },
  {
    "id": 20,
    "name": "Itwari Plastic Recycling Center",
    "type": "plastic",
    "state": "Maharashtra",
    "district": "Nagpur",
    "city": "Nagpur",
    "pincode": "440002",
    "lat": 21.054009,
    "lng": 79.05305,
    "address": "Itwari, Nagpur, Maharashtra, India",
    "phone": "+91 9827457713",
    "rating": 5.0,
    "verified": false
  },
  {
    "id": 21,
    "name": "Koradi Road Ewaste Recycling Center",
    "type": "ewaste",
    "state": "Maharashtra",
    "district": "Nagpur",
    "city": "Nagpur",
    "pincode": "440030",
    "lat": 21.101758,
    "lng": 78.969789,
    "address": "Koradi Road, Nagpur, Maharashtra, India",
    "phone": "+91 9929992683",
    "rating": 3.9,
    "verified": false
  },
  {
    "id": 22,
    "name": "Pratap Nagar Glass Recycling Center",
    "type": "glass",
    "state": "Maharashtra",
    "district": "Nagpur",
    "city": "Nagpur",
    "pincode": "440022",
    "lat": 21.09795,
    "lng": 79.158548,
    "address": "Pratap Nagar, Nagpur, Maharashtra, India",
    "phone": "+91 9573747139",
    "rating": 3.6,
    "verified": false
  },
  {
    "id": 23,
    "name": "Wardhaman Nagar Glass Recycling Center",
    "type": "glass",
    "state": "Maharashtra",
    "district": "Nagpur",
    "city": "Nagpur",
    "pincode": "440008",
    "lat": 21.10486,
    "lng": 79.148677,
    "address": "Wardhaman Nagar, Nagpur, Maharashtra, India",
    "phone": "+91 9437799356",
    "rating": 3.6,
    "verified": true
  },
  {
    "id": 24,
    "name": "Mahal Scrap Recycling Center",
    "type": "scrap",
    "state": "Maharashtra",
    "district": "Nagpur",
    "city": "Nagpur",
    "pincode": "440002",
    "lat": 21.182479,
    "lng": 79.146892,
    "address": "Mahal, Nagpur, Maharashtra, India",
    "phone": "+91 9172073046",
    "rating": 3.5,
    "verified": true
  },
  {
    "id": 25,
    "name": "Kamptee Road Paper Recycling Center",
    "type": "paper",
    "state": "Maharashtra",
    "district": "Nagpur",
    "city": "Nagpur",
    "pincode": "440026",
    "lat": 21.112347,
    "lng": 79.120613,
    "address": "Kamptee Road, Nagpur, Maharashtra, India",
    "phone": "+91 9603426121",
    "rating": 4.9,
    "verified": false
  },
  {
    "id": 26,
    "name": "Manewada Glass Recycling Center",
    "type": "glass",
    "state": "Maharashtra",
    "district": "Nagpur",
    "city": "Nagpur",
    "pincode": "440024",
    "lat": 21.084778,
    "lng": 79.089565,
    "address": "Manewada, Nagpur, Maharashtra, India",
    "phone": "+91 9409405068",
    "rating": 4.7,
    "verified": true
  },
  {
    "id": 27,
    "name": "Dharampeth Ewaste Recycling Center",
    "type": "ewaste",
    "state": "Maharashtra",
    "district": "Nagpur",
    "city": "Nagpur",
    "pincode": "440010",
    "lat": 21.119658,
    "lng": 78.97331,
    "address": "Dharampeth, Nagpur, Maharashtra, India",
    "phone": "+91 9776673972",
    "rating": 4.6,
    "verified": true
  },
  {
    "id": 28,
    "name": "Dharampeth Paper Recycling Center",
    "type": "paper",
    "state": "Maharashtra",
    "district": "Nagpur",
    "city": "Nagpur",
    "pincode": "440010",
    "lat": 21.080874,
    "lng": 79.018198,
    "address": "Dharampeth, Nagpur, Maharashtra, India",
    "phone": "+91 9517318988",
    "rating": 4.7,
    "verified": true
  },
  {
    "id": 29,
    "name": "Mahal Glass Recycling Center",
    "type": "glass",
    "state": "Maharashtra",
    "district": "Nagpur",
    "city": "Nagpur",
    "pincode": "440002",
    "lat": 21.089309,
    "lng": 79.151704,
    "address": "Mahal, Nagpur, Maharashtra, India",
    "phone": "+91 9273140505",
    "rating": 4.2,
    "verified": true
  },
  {
    "id": 30,
    "name": "Itwari Glass Recycling Center",
    "type": "glass",
    "state": "Maharashtra",
    "district": "Nagpur",
    "city": "Nagpur",
    "pincode": "440002",
    "lat": 21.091501,
    "lng": 79.134815,
    "address": "Itwari, Nagpur, Maharashtra, India",
    "phone": "+91 9275025676",
    "rating": 3.5,
    "verified": false
  },
  {
    "id": 31,
    "name": "Itwari Scrap Recycling Center",
    "type": "scrap",
    "state": "Maharashtra",
    "district": "Nagpur",
    "city": "Nagpur",
    "pincode": "440002",
    "lat": 21.179878,
    "lng": 79.16137,
    "address": "Itwari, Nagpur, Maharashtra, India",
    "phone": "+91 9410694214",
    "rating": 4.1,
    "verified": true
  },
  {
    "id": 32,
    "name": "Jaripatka Plastic Recycling Center",
    "type": "plastic",
    "state": "Maharashtra",
    "district": "Nagpur",
    "city": "Nagpur",
    "pincode": "440014",
    "lat": 21.091218,
    "lng": 79.066011,
    "address": "Jaripatka, Nagpur, Maharashtra, India",
    "phone": "+91 9695392925",
    "rating": 3.8,
    "verified": false
  },
  {
    "id": 33,
    "name": "Itwari Scrap Recycling Center",
    "type": "scrap",
    "state": "Maharashtra",
    "district": "Nagpur",
    "city": "Nagpur",
    "pincode": "440002",
    "lat": 21.162834,
    "lng": 79.015195,
    "address": "Itwari, Nagpur, Maharashtra, India",
    "phone": "+91 9565949228",
    "rating": 3.8,
    "verified": false
  },
  {
    "id": 34,
    "name": "Mahal Metal Recycling Center",
    "type": "metal",
    "state": "Maharashtra",
    "district": "Nagpur",
    "city": "Nagpur",
    "pincode": "440002",
    "lat": 21.073236,
    "lng": 78.99654,
    "address": "Mahal, Nagpur, Maharashtra, India",
    "phone": "+91 9227258217",
    "rating": 4.2,
    "verified": true
  },
  {
    "id": 35,
    "name": "Besa Paper Recycling Center",
    "type": "paper",
    "state": "Maharashtra",
    "district": "Nagpur",
    "city": "Nagpur",
    "pincode": "440037",
    "lat": 21.073508,
    "lng": 79.18036,
    "address": "Besa, Nagpur, Maharashtra, India",
    "phone": "+91 9819605225",
    "rating": 4.8,
    "verified": true
  },
  {
    "id": 36,
    "name": "Dharampeth Ewaste Recycling Center",
    "type": "ewaste",
    "state": "Maharashtra",
    "district": "Nagpur",
    "city": "Nagpur",
    "pincode": "440010",
    "lat": 21.051283,
    "lng": 78.96469,
    "address": "Dharampeth, Nagpur, Maharashtra, India",
    "phone": "+91 9865863826",
    "rating": 5.0,
    "verified": true
  },
  {
    "id": 37,
    "name": "Manewada Ewaste Recycling Center",
    "type": "ewaste",
    "state": "Maharashtra",
    "district": "Nagpur",
    "city": "Nagpur",
    "pincode": "440024",
    "lat": 21.087488,
    "lng": 79.193751,
    "address": "Manewada, Nagpur, Maharashtra, India",
    "phone": "+91 9378002222",
    "rating": 4.0,
    "verified": true
  },
  {
    "id": 38,
    "name": "Mankapur Metal Recycling Center",
    "type": "metal",
    "state": "Maharashtra",
    "district": "Nagpur",
    "city": "Nagpur",
    "pincode": "440030",
    "lat": 21.121247,
    "lng": 78.997846,
    "address": "Mankapur, Nagpur, Maharashtra, India",
    "phone": "+91 9622838420",
    "rating": 4.4,
    "verified": true
  },
  {
    "id": 39,
    "name": "Besa Metal Recycling Center",
    "type": "metal",
    "state": "Maharashtra",
    "district": "Nagpur",
    "city": "Nagpur",
    "pincode": "440037",
    "lat": 21.098812,
    "lng": 79.029889,
    "address": "Besa, Nagpur, Maharashtra, India",
    "phone": "+91 9644011540",
    "rating": 4.3,
    "verified": false
  },
  {
    "id": 40,
    "name": "Sadar Ewaste Recycling Center",
    "type": "ewaste",
    "state": "Maharashtra",
    "district": "Nagpur",
    "city": "Nagpur",
    "pincode": "440001",
    "lat": 21.195303,
    "lng": 78.986152,
    "address": "Sadar, Nagpur, Maharashtra, India",
    "phone": "+91 9281953957",
    "rating": 4.3,
    "verified": false
  },
  {
    "id": 41,
    "name": "Manewada Glass Recycling Center",
    "type": "glass",
    "state": "Maharashtra",
    "district": "Nagpur",
    "city": "Nagpur",
    "pincode": "440024",
    "lat": 21.148405,
    "lng": 79.02042,
    "address": "Manewada, Nagpur, Maharashtra, India",
    "phone": "+91 9408911690",
    "rating": 4.5,
    "verified": true
  },
  {
    "id": 42,
    "name": "Hingna Metal Recycling Center",
    "type": "metal",
    "state": "Maharashtra",
    "district": "Nagpur",
    "city": "Nagpur",
    "pincode": "440016",
    "lat": 21.138077,
    "lng": 79.154464,
    "address": "Hingna, Nagpur, Maharashtra, India",
    "phone": "+91 9960126509",
    "rating": 4.3,
    "verified": true
  },
  {
    "id": 43,
    "name": "Wardhaman Nagar Scrap Recycling Center",
    "type": "scrap",
    "state": "Maharashtra",
    "district": "Nagpur",
    "city": "Nagpur",
    "pincode": "440008",
    "lat": 21.077863,
    "lng": 79.0322,
    "address": "Wardhaman Nagar, Nagpur, Maharashtra, India",
    "phone": "+91 9428893210",
    "rating": 4.0,
    "verified": true
  },
  {
    "id": 44,
    "name": "Itwari Metal Recycling Center",
    "type": "metal",
    "state": "Maharashtra",
    "district": "Nagpur",
    "city": "Nagpur",
    "pincode": "440002",
    "lat": 21.175759,
    "lng": 79.019138,
    "address": "Itwari, Nagpur, Maharashtra, India",
    "phone": "+91 9261336791",
    "rating": 4.2,
    "verified": true
  },
  {
    "id": 45,
    "name": "Dharampeth Paper Recycling Center",
    "type": "paper",
    "state": "Maharashtra",
    "district": "Nagpur",
    "city": "Nagpur",
    "pincode": "440010",
    "lat": 21.13271,
    "lng": 79.191567,
    "address": "Dharampeth, Nagpur, Maharashtra, India",
    "phone": "+91 9648319380",
    "rating": 4.2,
    "verified": true
  },
  {
    "id": 46,
    "name": "Pratap Nagar Scrap Recycling Center",
    "type": "scrap",
    "state": "Maharashtra",
    "district": "Nagpur",
    "city": "Nagpur",
    "pincode": "440022",
    "lat": 21.078119,
    "lng": 79.041003,
    "address": "Pratap Nagar, Nagpur, Maharashtra, India",
    "phone": "+91 9181526807",
    "rating": 3.5,
    "verified": false
  },
  {
    "id": 47,
    "name": "Mankapur Scrap Recycling Center",
    "type": "scrap",
    "state": "Maharashtra",
    "district": "Nagpur",
    "city": "Nagpur",
    "pincode": "440030",
    "lat": 21.166496,
    "lng": 79.102327,
    "address": "Mankapur, Nagpur, Maharashtra, India",
    "phone": "+91 9286294954",
    "rating": 4.6,
    "verified": true
  },
  {
    "id": 48,
    "name": "Nandanvan Metal Recycling Center",
    "type": "metal",
    "state": "Maharashtra",
    "district": "Nagpur",
    "city": "Nagpur",
    "pincode": "440009",
    "lat": 21.072809,
    "lng": 78.980702,
    "address": "Nandanvan, Nagpur, Maharashtra, India",
    "phone": "+91 9175016829",
    "rating": 4.0,
    "verified": true
  },
  {
    "id": 49,
    "name": "Besa Plastic Recycling Center",
    "type": "plastic",
    "state": "Maharashtra",
    "district": "Nagpur",
    "city": "Nagpur",
    "pincode": "440037",
    "lat": 21.226609,
    "lng": 79.086722,
    "address": "Besa, Nagpur, Maharashtra, India",
    "phone": "+91 9516295528",
    "rating": 4.6,
    "verified": true
  },
  {
    "id": 50,
    "name": "Hingna Plastic Recycling Center",
    "type": "plastic",
    "state": "Maharashtra",
    "district": "Nagpur",
    "city": "Nagpur",
    "pincode": "440016",
    "lat": 21.190222,
    "lng": 79.123238,
    "address": "Hingna, Nagpur, Maharashtra, India",
    "phone": "+91 9607037862",
    "rating": 3.9,
    "verified": false
  },
  {
    "id": 51,
    "name": "Nandanvan Scrap Recycling Center",
    "type": "scrap",
    "state": "Maharashtra",
    "district": "Nagpur",
    "city": "Nagpur",
    "pincode": "440009",
    "lat": 21.2191,
    "lng": 78.991103,
    "address": "Nandanvan, Nagpur, Maharashtra, India",
    "phone": "+91 9314165566",
    "rating": 3.9,
    "verified": true
  },
  {
    "id": 52,
    "name": "Jaripatka Plastic Recycling Center",
    "type": "plastic",
    "state": "Maharashtra",
    "district": "Nagpur",
    "city": "Nagpur",
    "pincode": "440014",
    "lat": 21.081606,
    "lng": 78.994367,
    "address": "Jaripatka, Nagpur, Maharashtra, India",
    "phone": "+91 9102489766",
    "rating": 4.4,
    "verified": true
  },
  {
    "id": 53,
    "name": "Pratap Nagar Scrap Recycling Center",
    "type": "scrap",
    "state": "Maharashtra",
    "district": "Nagpur",
    "city": "Nagpur",
    "pincode": "440022",
    "lat": 21.243544,
    "lng": 78.972251,
    "address": "Pratap Nagar, Nagpur, Maharashtra, India",
    "phone": "+91 9752118620",
    "rating": 3.7,
    "verified": true
  },
  {
    "id": 54,
    "name": "Besa Metal Recycling Center",
    "type": "metal",
    "state": "Maharashtra",
    "district": "Nagpur",
    "city": "Nagpur",
    "pincode": "440037",
    "lat": 21.241756,
    "lng": 79.174005,
    "address": "Besa, Nagpur, Maharashtra, India",
    "phone": "+91 9412493184",
    "rating": 4.2,
    "verified": false
  },
  {
    "id": 55,
    "name": "Dharampeth Plastic Recycling Center",
    "type": "plastic",
    "state": "Maharashtra",
    "district": "Nagpur",
    "city": "Nagpur",
    "pincode": "440010",
    "lat": 21.180212,
    "lng": 78.959232,
    "address": "Dharampeth, Nagpur, Maharashtra, India",
    "phone": "+91 9122452325",
    "rating": 4.3,
    "verified": true
  },
  {
    "id": 56,
    "name": "Koradi Road Scrap Recycling Center",
    "type": "scrap",
    "state": "Maharashtra",
    "district": "Nagpur",
    "city": "Nagpur",
    "pincode": "440030",
    "lat": 21.192161,
    "lng": 79.046608,
    "address": "Koradi Road, Nagpur, Maharashtra, India",
    "phone": "+91 9476096026",
    "rating": 4.4,
    "verified": true
  },
  {
    "id": 57,
    "name": "Trimurti Nagar Plastic Recycling Center",
    "type": "plastic",
    "state": "Maharashtra",
    "district": "Nagpur",
    "city": "Nagpur",
    "pincode": "440022",
    "lat": 21.239686,
    "lng": 79.111769,
    "address": "Trimurti Nagar, Nagpur, Maharashtra, India",
    "phone": "+91 9562668235",
    "rating": 4.1,
    "verified": true
  },
  {
    "id": 58,
    "name": "Dharampeth Glass Recycling Center",
    "type": "glass",
    "state": "Maharashtra",
    "district": "Nagpur",
    "city": "Nagpur",
    "pincode": "440010",
    "lat": 21.067927,
    "lng": 79.142503,
    "address": "Dharampeth, Nagpur, Maharashtra, India",
    "phone": "+91 9184838145",
    "rating": 3.7,
    "verified": true
  },
  {
    "id": 59,
    "name": "Mankapur Plastic Recycling Center",
    "type": "plastic",
    "state": "Maharashtra",
    "district": "Nagpur",
    "city": "Nagpur",
    "pincode": "440030",
    "lat": 21.127233,
    "lng": 79.067781,
    "address": "Mankapur, Nagpur, Maharashtra, India",
    "phone": "+91 9472228389",
    "rating": 5.0,
    "verified": true
  },
  {
    "id": 60,
    "name": "Wardhaman Nagar Plastic Recycling Center",
    "type": "plastic",
    "state": "Maharashtra",
    "district": "Nagpur",
    "city": "Nagpur",
    "pincode": "440008",
    "lat": 21.194168,
    "lng": 78.990826,
    "address": "Wardhaman Nagar, Nagpur, Maharashtra, India",
    "phone": "+91 9907047388",
    "rating": 4.3,
    "verified": true
  },
  {
    "id": 61,
    "name": "Mahal Paper Recycling Center",
    "type": "paper",
    "state": "Maharashtra",
    "district": "Nagpur",
    "city": "Nagpur",
    "pincode": "440002",
    "lat": 21.090651,
    "lng": 79.187777,
    "address": "Mahal, Nagpur, Maharashtra, India",
    "phone": "+91 9484699003",
    "rating": 3.6,
    "verified": true
  },
  {
    "id": 62,
    "name": "Dharampeth Paper Recycling Center",
    "type": "paper",
    "state": "Maharashtra",
    "district": "Nagpur",
    "city": "Nagpur",
    "pincode": "440010",
    "lat": 21.128971,
    "lng": 79.178605,
    "address": "Dharampeth, Nagpur, Maharashtra, India",
    "phone": "+91 9473955354",
    "rating": 3.9,
    "verified": true
  },
  {
    "id": 63,
    "name": "Wardhaman Nagar Glass Recycling Center",
    "type": "glass",
    "state": "Maharashtra",
    "district": "Nagpur",
    "city": "Nagpur",
    "pincode": "440008",
    "lat": 21.24589,
    "lng": 79.14335,
    "address": "Wardhaman Nagar, Nagpur, Maharashtra, India",
    "phone": "+91 9968809925",
    "rating": 4.1,
    "verified": false
  },
  {
    "id": 64,
    "name": "Wardhaman Nagar Ewaste Recycling Center",
    "type": "ewaste",
    "state": "Maharashtra",
    "district": "Nagpur",
    "city": "Nagpur",
    "pincode": "440008",
    "lat": 21.116692,
    "lng": 79.066415,
    "address": "Wardhaman Nagar, Nagpur, Maharashtra, India",
    "phone": "+91 9610514080",
    "rating": 4.3,
    "verified": true
  },
  {
    "id": 65,
    "name": "Trimurti Nagar Metal Recycling Center",
    "type": "metal",
    "state": "Maharashtra",
    "district": "Nagpur",
    "city": "Nagpur",
    "pincode": "440022",
    "lat": 21.066084,
    "lng": 79.155153,
    "address": "Trimurti Nagar, Nagpur, Maharashtra, India",
    "phone": "+91 9993832709",
    "rating": 4.6,
    "verified": false
  },
  {
    "id": 66,
    "name": "Koradi Road Glass Recycling Center",
    "type": "glass",
    "state": "Maharashtra",
    "district": "Nagpur",
    "city": "Nagpur",
    "pincode": "440030",
    "lat": 21.138594,
    "lng": 79.15564,
    "address": "Koradi Road, Nagpur, Maharashtra, India",
    "phone": "+91 9645101600",
    "rating": 3.8,
    "verified": true
  },
  {
    "id": 67,
    "name": "Besa Scrap Recycling Center",
    "type": "scrap",
    "state": "Maharashtra",
    "district": "Nagpur",
    "city": "Nagpur",
    "pincode": "440037",
    "lat": 21.217278,
    "lng": 79.158598,
    "address": "Besa, Nagpur, Maharashtra, India",
    "phone": "+91 9128444178",
    "rating": 4.0,
    "verified": false
  },
  {
    "id": 68,
    "name": "Jaripatka Scrap Recycling Center",
    "type": "scrap",
    "state": "Maharashtra",
    "district": "Nagpur",
    "city": "Nagpur",
    "pincode": "440014",
    "lat": 21.10187,
    "lng": 78.960349,
    "address": "Jaripatka, Nagpur, Maharashtra, India",
    "phone": "+91 9472147411",
    "rating": 4.0,
    "verified": true
  },
  {
    "id": 69,
    "name": "Sadar Ewaste Recycling Center",
    "type": "ewaste",
    "state": "Maharashtra",
    "district": "Nagpur",
    "city": "Nagpur",
    "pincode": "440001",
    "lat": 21.201707,
    "lng": 79.11651,
    "address": "Sadar, Nagpur, Maharashtra, India",
    "phone": "+91 9789125253",
    "rating": 4.4,
    "verified": false
  },
  {
    "id": 70,
    "name": "Wardhaman Nagar Scrap Recycling Center",
    "type": "scrap",
    "state": "Maharashtra",
    "district": "Nagpur",
    "city": "Nagpur",
    "pincode": "440008",
    "lat": 21.23867,
    "lng": 79.153617,
    "address": "Wardhaman Nagar, Nagpur, Maharashtra, India",
    "phone": "+91 9664305351",
    "rating": 3.9,
    "verified": true
  },
  {
    "id": 71,
    "name": "Sadar Paper Recycling Center",
    "type": "paper",
    "state": "Maharashtra",
    "district": "Nagpur",
    "city": "Nagpur",
    "pincode": "440001",
    "lat": 21.180711,
    "lng": 78.977041,
    "address": "Sadar, Nagpur, Maharashtra, India",
    "phone": "+91 9937269415",
    "rating": 3.6,
    "verified": false
  },
  {
    "id": 72,
    "name": "Besa Paper Recycling Center",
    "type": "paper",
    "state": "Maharashtra",
    "district": "Nagpur",
    "city": "Nagpur",
    "pincode": "440037",
    "lat": 21.167756,
    "lng": 79.196196,
    "address": "Besa, Nagpur, Maharashtra, India",
    "phone": "+91 9545164160",
    "rating": 4.8,
    "verified": true
  },
  {
    "id": 73,
    "name": "Kamptee Road Scrap Recycling Center",
    "type": "scrap",
    "state": "Maharashtra",
    "district": "Nagpur",
    "city": "Nagpur",
    "pincode": "440026",
    "lat": 21.142709,
    "lng": 79.069805,
    "address": "Kamptee Road, Nagpur, Maharashtra, India",
    "phone": "+91 9680970112",
    "rating": 4.2,
    "verified": true
  },
  {
    "id": 74,
    "name": "Mahal Scrap Recycling Center",
    "type": "scrap",
    "state": "Maharashtra",
    "district": "Nagpur",
    "city": "Nagpur",
    "pincode": "440002",
    "lat": 21.138085,
    "lng": 79.058431,
    "address": "Mahal, Nagpur, Maharashtra, India",
    "phone": "+91 9842429941",
    "rating": 3.6,
    "verified": false
  },
  {
    "id": 75,
    "name": "Pratap Nagar Metal Recycling Center",
    "type": "metal",
    "state": "Maharashtra",
    "district": "Nagpur",
    "city": "Nagpur",
    "pincode": "440022",
    "lat": 21.157702,
    "lng": 79.165295,
    "address": "Pratap Nagar, Nagpur, Maharashtra, India",
    "phone": "+91 9193430794",
    "rating": 4.1,
    "verified": true
  },
  {
    "id": 76,
    "name": "Jaripatka Plastic Recycling Center",
    "type": "plastic",
    "state": "Maharashtra",
    "district": "Nagpur",
    "city": "Nagpur",
    "pincode": "440014",
    "lat": 21.177493,
    "lng": 78.996825,
    "address": "Jaripatka, Nagpur, Maharashtra, India",
    "phone": "+91 9309473478",
    "rating": 4.0,
    "verified": true
  },
  {
    "id": 77,
    "name": "Nandanvan Paper Recycling Center",
    "type": "paper",
    "state": "Maharashtra",
    "district": "Nagpur",
    "city": "Nagpur",
    "pincode": "440009",
    "lat": 21.162925,
    "lng": 79.039992,
    "address": "Nandanvan, Nagpur, Maharashtra, India",
    "phone": "+91 9972874024",
    "rating": 4.9,
    "verified": false
  },
  {
    "id": 78,
    "name": "Manewada Ewaste Recycling Center",
    "type": "ewaste",
    "state": "Maharashtra",
    "district": "Nagpur",
    "city": "Nagpur",
    "pincode": "440024",
    "lat": 21.199319,
    "lng": 79.154562,
    "address": "Manewada, Nagpur, Maharashtra, India",
    "phone": "+91 9627704625",
    "rating": 5.0,
    "verified": true
  },
  {
    "id": 79,
    "name": "Sadar Glass Recycling Center",
    "type": "glass",
    "state": "Maharashtra",
    "district": "Nagpur",
    "city": "Nagpur",
    "pincode": "440001",
    "lat": 21.1497,
    "lng": 79.173733,
    "address": "Sadar, Nagpur, Maharashtra, India",
    "phone": "+91 9908662942",
    "rating": 3.9,
    "verified": true
  },
  {
    "id": 80,
    "name": "Mahal Plastic Recycling Center",
    "type": "plastic",
    "state": "Maharashtra",
    "district": "Nagpur",
    "city": "Nagpur",
    "pincode": "440002",
    "lat": 21.126632,
    "lng": 79.024338,
    "address": "Mahal, Nagpur, Maharashtra, India",
    "phone": "+91 9850611713",
    "rating": 4.3,
    "verified": false
  },
  {
    "id": 81,
    "name": "Kamptee Road Ewaste Recycling Center",
    "type": "ewaste",
    "state": "Maharashtra",
    "district": "Nagpur",
    "city": "Nagpur",
    "pincode": "440026",
    "lat": 21.089629,
    "lng": 79.090914,
    "address": "Kamptee Road, Nagpur, Maharashtra, India",
    "phone": "+91 9332329744",
    "rating": 3.7,
    "verified": false
  },
  {
    "id": 82,
    "name": "Kamptee Road Ewaste Recycling Center",
    "type": "ewaste",
    "state": "Maharashtra",
    "district": "Nagpur",
    "city": "Nagpur",
    "pincode": "440026",
    "lat": 21.142227,
    "lng": 79.078817,
    "address": "Kamptee Road, Nagpur, Maharashtra, India",
    "phone": "+91 9250678993",
    "rating": 4.4,
    "verified": true
  },
  {
    "id": 83,
    "name": "Dharampeth Plastic Recycling Center",
    "type": "plastic",
    "state": "Maharashtra",
    "district": "Nagpur",
    "city": "Nagpur",
    "pincode": "440010",
    "lat": 21.072983,
    "lng": 79.195461,
    "address": "Dharampeth, Nagpur, Maharashtra, India",
    "phone": "+91 9372309176",
    "rating": 4.5,
    "verified": true
  },
  {
    "id": 84,
    "name": "Dharampeth Metal Recycling Center",
    "type": "metal",
    "state": "Maharashtra",
    "district": "Nagpur",
    "city": "Nagpur",
    "pincode": "440010",
    "lat": 21.130983,
    "lng": 79.138136,
    "address": "Dharampeth, Nagpur, Maharashtra, India",
    "phone": "+91 9997359746",
    "rating": 4.0,
    "verified": true
  },
  {
    "id": 85,
    "name": "Nandanvan Ewaste Recycling Center",
    "type": "ewaste",
    "state": "Maharashtra",
    "district": "Nagpur",
    "city": "Nagpur",
    "pincode": "440009",
    "lat": 21.193537,
    "lng": 79.112412,
    "address": "Nandanvan, Nagpur, Maharashtra, India",
    "phone": "+91 9786264768",
    "rating": 3.7,
    "verified": false
  },
  {
    "id": 86,
    "name": "Besa Plastic Recycling Center",
    "type": "plastic",
    "state": "Maharashtra",
    "district": "Nagpur",
    "city": "Nagpur",
    "pincode": "440037",
    "lat": 21.149524,
    "lng": 79.185396,
    "address": "Besa, Nagpur, Maharashtra, India",
    "phone": "+91 9103523884",
    "rating": 4.1,
    "verified": false
  },
  {
    "id": 87,
    "name": "Dharampeth Scrap Recycling Center",
    "type": "scrap",
    "state": "Maharashtra",
    "district": "Nagpur",
    "city": "Nagpur",
    "pincode": "440010",
    "lat": 21.204605,
    "lng": 79.188816,
    "address": "Dharampeth, Nagpur, Maharashtra, India",
    "phone": "+91 9604287873",
    "rating": 4.8,
    "verified": true
  },
  {
    "id": 88,
    "name": "Trimurti Nagar Paper Recycling Center",
    "type": "paper",
    "state": "Maharashtra",
    "district": "Nagpur",
    "city": "Nagpur",
    "pincode": "440022",
    "lat": 21.222204,
    "lng": 79.089505,
    "address": "Trimurti Nagar, Nagpur, Maharashtra, India",
    "phone": "+91 9952224719",
    "rating": 4.6,
    "verified": true
  },
  {
    "id": 89,
    "name": "Mahal Scrap Recycling Center",
    "type": "scrap",
    "state": "Maharashtra",
    "district": "Nagpur",
    "city": "Nagpur",
    "pincode": "440002",
    "lat": 21.116576,
    "lng": 79.012321,
    "address": "Mahal, Nagpur, Maharashtra, India",
    "phone": "+91 9879421718",
    "rating": 3.6,
    "verified": true
  },
  {
    "id": 90,
    "name": "Pratap Nagar Metal Recycling Center",
    "type": "metal",
    "state": "Maharashtra",
    "district": "Nagpur",
    "city": "Nagpur",
    "pincode": "440022",
    "lat": 21.168192,
    "lng": 78.95189,
    "address": "Pratap Nagar, Nagpur, Maharashtra, India",
    "phone": "+91 9897898393",
    "rating": 3.8,
    "verified": false
  },
  {
    "id": 91,
    "name": "Sitabuldi Glass Recycling Center",
    "type": "glass",
    "state": "Maharashtra",
    "district": "Nagpur",
    "city": "Nagpur",
    "pincode": "440012",
    "lat": 21.130948,
    "lng": 79.101513,
    "address": "Sitabuldi, Nagpur, Maharashtra, India",
    "phone": "+91 9646130255",
    "rating": 4.0,
    "verified": true
  },
  {
    "id": 92,
    "name": "Mahal Plastic Recycling Center",
    "type": "plastic",
    "state": "Maharashtra",
    "district": "Nagpur",
    "city": "Nagpur",
    "pincode": "440002",
    "lat": 21.149393,
    "lng": 79.142583,
    "address": "Mahal, Nagpur, Maharashtra, India",
    "phone": "+91 9702857317",
    "rating": 3.5,
    "verified": true
  },
  {
    "id": 93,
    "name": "Manewada Paper Recycling Center",
    "type": "paper",
    "state": "Maharashtra",
    "district": "Nagpur",
    "city": "Nagpur",
    "pincode": "440024",
    "lat": 21.061465,
    "lng": 79.113124,
    "address": "Manewada, Nagpur, Maharashtra, India",
    "phone": "+91 9945890230",
    "rating": 4.6,
    "verified": true
  },
  {
    "id": 94,
    "name": "Hingna Scrap Recycling Center",
    "type": "scrap",
    "state": "Maharashtra",
    "district": "Nagpur",
    "city": "Nagpur",
    "pincode": "440016",
    "lat": 21.182163,
    "lng": 79.167578,
    "address": "Hingna, Nagpur, Maharashtra, India",
    "phone": "+91 9589643747",
    "rating": 3.6,
    "verified": true
  },
  {
    "id": 95,
    "name": "Mahal Metal Recycling Center",
    "type": "metal",
    "state": "Maharashtra",
    "district": "Nagpur",
    "city": "Nagpur",
    "pincode": "440002",
    "lat": 21.10368,
    "lng": 79.042048,
    "address": "Mahal, Nagpur, Maharashtra, India",
    "phone": "+91 9582198762",
    "rating": 3.6,
    "verified": true
  },
  {
    "id": 96,
    "name": "Jaripatka Paper Recycling Center",
    "type": "paper",
    "state": "Maharashtra",
    "district": "Nagpur",
    "city": "Nagpur",
    "pincode": "440014",
    "lat": 21.135552,
    "lng": 79.170208,
    "address": "Jaripatka, Nagpur, Maharashtra, India",
    "phone": "+91 9953304947",
    "rating": 3.7,
    "verified": false
  },
  {
    "id": 97,
    "name": "Trimurti Nagar Paper Recycling Center",
    "type": "paper",
    "state": "Maharashtra",
    "district": "Nagpur",
    "city": "Nagpur",
    "pincode": "440022",
    "lat": 21.248694,
    "lng": 79.175963,
    "address": "Trimurti Nagar, Nagpur, Maharashtra, India",
    "phone": "+91 9212954103",
    "rating": 4.9,
    "verified": true
  },
  {
    "id": 98,
    "name": "Hingna Paper Recycling Center",
    "type": "paper",
    "state": "Maharashtra",
    "district": "Nagpur",
    "city": "Nagpur",
    "pincode": "440016",
    "lat": 21.091194,
    "lng": 79.085256,
    "address": "Hingna, Nagpur, Maharashtra, India",
    "phone": "+91 9331802699",
    "rating": 4.1,
    "verified": true
  },
  {
    "id": 99,
    "name": "Mahal Glass Recycling Center",
    "type": "glass",
    "state": "Maharashtra",
    "district": "Nagpur",
    "city": "Nagpur",
    "pincode": "440002",
    "lat": 21.198489,
    "lng": 79.010606,
    "address": "Mahal, Nagpur, Maharashtra, India",
    "phone": "+91 9795385302",
    "rating": 4.4,
    "verified": false
  },
  {
    "id": 100,
    "name": "Wardhaman Nagar Scrap Recycling Center",
    "type": "scrap",
    "state": "Maharashtra",
    "district": "Nagpur",
    "city": "Nagpur",
    "pincode": "440008",
    "lat": 21.160306,
    "lng": 78.999454,
    "address": "Wardhaman Nagar, Nagpur, Maharashtra, India",
    "phone": "+91 9741636114",
    "rating": 4.5,
    "verified": true
  },
  {
    "id": 101,
    "name": "Dharampeth Plastic Recycling Center",
    "type": "plastic",
    "state": "Maharashtra",
    "district": "Nagpur",
    "city": "Nagpur",
    "pincode": "440010",
    "lat": 21.055456,
    "lng": 78.985965,
    "address": "Dharampeth, Nagpur, Maharashtra, India",
    "phone": "+91 9564197891",
    "rating": 3.6,
    "verified": true
  },
  {
    "id": 102,
    "name": "Manewada Scrap Recycling Center",
    "type": "scrap",
    "state": "Maharashtra",
    "district": "Nagpur",
    "city": "Nagpur",
    "pincode": "440024",
    "lat": 21.181819,
    "lng": 79.144555,
    "address": "Manewada, Nagpur, Maharashtra, India",
    "phone": "+91 9906263947",
    "rating": 4.1,
    "verified": false
  },
  {
    "id": 103,
    "name": "Trimurti Nagar Metal Recycling Center",
    "type": "metal",
    "state": "Maharashtra",
    "district": "Nagpur",
    "city": "Nagpur",
    "pincode": "440022",
    "lat": 21.20039,
    "lng": 79.000646,
    "address": "Trimurti Nagar, Nagpur, Maharashtra, India",
    "phone": "+91 9731790420",
    "rating": 4.4,
    "verified": true
  },
  {
    "id": 104,
    "name": "Jaripatka Plastic Recycling Center",
    "type": "plastic",
    "state": "Maharashtra",
    "district": "Nagpur",
    "city": "Nagpur",
    "pincode": "440014",
    "lat": 21.2351,
    "lng": 79.022835,
    "address": "Jaripatka, Nagpur, Maharashtra, India",
    "phone": "+91 9220753500",
    "rating": 3.6,
    "verified": true
  },
  {
    "id": 105,
    "name": "Koradi Road Scrap Recycling Center",
    "type": "scrap",
    "state": "Maharashtra",
    "district": "Nagpur",
    "city": "Nagpur",
    "pincode": "440030",
    "lat": 21.208666,
    "lng": 79.096085,
    "address": "Koradi Road, Nagpur, Maharashtra, India",
    "phone": "+91 9250063482",
    "rating": 4.4,
    "verified": false
  },
  {
    "id": 106,
    "name": "Besa Glass Recycling Center",
    "type": "glass",
    "state": "Maharashtra",
    "district": "Nagpur",
    "city": "Nagpur",
    "pincode": "440037",
    "lat": 21.18705,
    "lng": 78.960607,
    "address": "Besa, Nagpur, Maharashtra, India",
    "phone": "+91 9362222233",
    "rating": 3.5,
    "verified": true
  },
  {
    "id": 107,
    "name": "Koradi Road Scrap Recycling Center",
    "type": "scrap",
    "state": "Maharashtra",
    "district": "Nagpur",
    "city": "Nagpur",
    "pincode": "440030",
    "lat": 21.066997,
    "lng": 79.040637,
    "address": "Koradi Road, Nagpur, Maharashtra, India",
    "phone": "+91 9371380497",
    "rating": 4.2,
    "verified": true
  },
  {
    "id": 108,
    "name": "Trimurti Nagar Glass Recycling Center",
    "type": "glass",
    "state": "Maharashtra",
    "district": "Nagpur",
    "city": "Nagpur",
    "pincode": "440022",
    "lat": 21.189568,
    "lng": 79.054358,
    "address": "Trimurti Nagar, Nagpur, Maharashtra, India",
    "phone": "+91 9528333015",
    "rating": 3.7,
    "verified": true
  },
  {
    "id": 109,
    "name": "Kamptee Road Ewaste Recycling Center",
    "type": "ewaste",
    "state": "Maharashtra",
    "district": "Nagpur",
    "city": "Nagpur",
    "pincode": "440026",
    "lat": 21.145738,
    "lng": 79.051296,
    "address": "Kamptee Road, Nagpur, Maharashtra, India",
    "phone": "+91 9297998996",
    "rating": 3.6,
    "verified": false
  },
  {
    "id": 110,
    "name": "Manewada Paper Recycling Center",
    "type": "paper",
    "state": "Maharashtra",
    "district": "Nagpur",
    "city": "Nagpur",
    "pincode": "440024",
    "lat": 21.232126,
    "lng": 79.054111,
    "address": "Manewada, Nagpur, Maharashtra, India",
    "phone": "+91 9370239500",
    "rating": 3.7,
    "verified": true
  },
  {
    "id": 111,
    "name": "Wardhaman Nagar Paper Recycling Center",
    "type": "paper",
    "state": "Maharashtra",
    "district": "Nagpur",
    "city": "Nagpur",
    "pincode": "440008",
    "lat": 21.164584,
    "lng": 79.057444,
    "address": "Wardhaman Nagar, Nagpur, Maharashtra, India",
    "phone": "+91 9628682553",
    "rating": 3.9,
    "verified": false
  },
  {
    "id": 112,
    "name": "Nandanvan Glass Recycling Center",
    "type": "glass",
    "state": "Maharashtra",
    "district": "Nagpur",
    "city": "Nagpur",
    "pincode": "440009",
    "lat": 21.067468,
    "lng": 79.073208,
    "address": "Nandanvan, Nagpur, Maharashtra, India",
    "phone": "+91 9696853472",
    "rating": 3.7,
    "verified": true
  },
  {
    "id": 113,
    "name": "Itwari Paper Recycling Center",
    "type": "paper",
    "state": "Maharashtra",
    "district": "Nagpur",
    "city": "Nagpur",
    "pincode": "440002",
    "lat": 21.050251,
    "lng": 79.13826,
    "address": "Itwari, Nagpur, Maharashtra, India",
    "phone": "+91 9697408873",
    "rating": 4.3,
    "verified": true
  },
  {
    "id": 114,
    "name": "Mahal Ewaste Recycling Center",
    "type": "ewaste",
    "state": "Maharashtra",
    "district": "Nagpur",
    "city": "Nagpur",
    "pincode": "440002",
    "lat": 21.198808,
    "lng": 79.165954,
    "address": "Mahal, Nagpur, Maharashtra, India",
    "phone": "+91 9143976307",
    "rating": 4.9,
    "verified": true
  },
  {
    "id": 115,
    "name": "Kamptee Road Scrap Recycling Center",
    "type": "scrap",
    "state": "Maharashtra",
    "district": "Nagpur",
    "city": "Nagpur",
    "pincode": "440026",
    "lat": 21.152219,
    "lng": 79.091306,
    "address": "Kamptee Road, Nagpur, Maharashtra, India",
    "phone": "+91 9947897959",
    "rating": 3.6,
    "verified": true
  },
  {
    "id": 116,
    "name": "Dharampeth Scrap Recycling Center",
    "type": "scrap",
    "state": "Maharashtra",
    "district": "Nagpur",
    "city": "Nagpur",
    "pincode": "440010",
    "lat": 21.086196,
    "lng": 78.955868,
    "address": "Dharampeth, Nagpur, Maharashtra, India",
    "phone": "+91 9124624707",
    "rating": 3.5,
    "verified": true
  },
  {
    "id": 117,
    "name": "Nandanvan Scrap Recycling Center",
    "type": "scrap",
    "state": "Maharashtra",
    "district": "Nagpur",
    "city": "Nagpur",
    "pincode": "440009",
    "lat": 21.082979,
    "lng": 79.079374,
    "address": "Nandanvan, Nagpur, Maharashtra, India",
    "phone": "+91 9605973825",
    "rating": 3.6,
    "verified": true
  },
  {
    "id": 118,
    "name": "Trimurti Nagar Paper Recycling Center",
    "type": "paper",
    "state": "Maharashtra",
    "district": "Nagpur",
    "city": "Nagpur",
    "pincode": "440022",
    "lat": 21.175197,
    "lng": 79.150088,
    "address": "Trimurti Nagar, Nagpur, Maharashtra, India",
    "phone": "+91 9719606777",
    "rating": 4.4,
    "verified": true
  },
  {
    "id": 119,
    "name": "Sadar Metal Recycling Center",
    "type": "metal",
    "state": "Maharashtra",
    "district": "Nagpur",
    "city": "Nagpur",
    "pincode": "440001",
    "lat": 21.050686,
    "lng": 79.108755,
    "address": "Sadar, Nagpur, Maharashtra, India",
    "phone": "+91 9822354395",
    "rating": 4.4,
    "verified": true
  },
  {
    "id": 120,
    "name": "Koradi Road Plastic Recycling Center",
    "type": "plastic",
    "state": "Maharashtra",
    "district": "Nagpur",
    "city": "Nagpur",
    "pincode": "440030",
    "lat": 21.169247,
    "lng": 79.16362,
    "address": "Koradi Road, Nagpur, Maharashtra, India",
    "phone": "+91 9950157644",
    "rating": 4.2,
    "verified": true
  },
  {
    "id": 121,
    "name": "Mankapur Glass Recycling Center",
    "type": "glass",
    "state": "Maharashtra",
    "district": "Nagpur",
    "city": "Nagpur",
    "pincode": "440030",
    "lat": 21.175158,
    "lng": 79.195558,
    "address": "Mankapur, Nagpur, Maharashtra, India",
    "phone": "+91 9820640065",
    "rating": 4.9,
    "verified": false
  },
  {
    "id": 122,
    "name": "Itwari Glass Recycling Center",
    "type": "glass",
    "state": "Maharashtra",
    "district": "Nagpur",
    "city": "Nagpur",
    "pincode": "440002",
    "lat": 21.089114,
    "lng": 79.060736,
    "address": "Itwari, Nagpur, Maharashtra, India",
    "phone": "+91 9574457719",
    "rating": 4.6,
    "verified": false
  },
  {
    "id": 123,
    "name": "Besa Metal Recycling Center",
    "type": "metal",
    "state": "Maharashtra",
    "district": "Nagpur",
    "city": "Nagpur",
    "pincode": "440037",
    "lat": 21.181852,
    "lng": 79.00886,
    "address": "Besa, Nagpur, Maharashtra, India",
    "phone": "+91 9803048708",
    "rating": 4.4,
    "verified": false
  },
  {
    "id": 124,
    "name": "Kamptee Road Metal Recycling Center",
    "type": "metal",
    "state": "Maharashtra",
    "district": "Nagpur",
    "city": "Nagpur",
    "pincode": "440026",
    "lat": 21.235181,
    "lng": 79.0523,
    "address": "Kamptee Road, Nagpur, Maharashtra, India",
    "phone": "+91 9660125486",
    "rating": 3.6,
    "verified": true
  },
  {
    "id": 125,
    "name": "Hingna Plastic Recycling Center",
    "type": "plastic",
    "state": "Maharashtra",
    "district": "Nagpur",
    "city": "Nagpur",
    "pincode": "440016",
    "lat": 21.20496,
    "lng": 79.068361,
    "address": "Hingna, Nagpur, Maharashtra, India",
    "phone": "+91 9113064327",
    "rating": 3.9,
    "verified": true
  },
  {
    "id": 126,
    "name": "Koradi Road Scrap Recycling Center",
    "type": "scrap",
    "state": "Maharashtra",
    "district": "Nagpur",
    "city": "Nagpur",
    "pincode": "440030",
    "lat": 21.121977,
    "lng": 78.975541,
    "address": "Koradi Road, Nagpur, Maharashtra, India",
    "phone": "+91 9593091075",
    "rating": 3.6,
    "verified": false
  },
  {
    "id": 127,
    "name": "Dharampeth Paper Recycling Center",
    "type": "paper",
    "state": "Maharashtra",
    "district": "Nagpur",
    "city": "Nagpur",
    "pincode": "440010",
    "lat": 21.100817,
    "lng": 79.069065,
    "address": "Dharampeth, Nagpur, Maharashtra, India",
    "phone": "+91 9573349738",
    "rating": 4.1,
    "verified": true
  },
  {
    "id": 128,
    "name": "Sadar Paper Recycling Center",
    "type": "paper",
    "state": "Maharashtra",
    "district": "Nagpur",
    "city": "Nagpur",
    "pincode": "440001",
    "lat": 21.186251,
    "lng": 79.111452,
    "address": "Sadar, Nagpur, Maharashtra, India",
    "phone": "+91 9609000076",
    "rating": 3.9,
    "verified": true
  },
  {
    "id": 129,
    "name": "Pratap Nagar Glass Recycling Center",
    "type": "glass",
    "state": "Maharashtra",
    "district": "Nagpur",
    "city": "Nagpur",
    "pincode": "440022",
    "lat": 21.07291,
    "lng": 79.024993,
    "address": "Pratap Nagar, Nagpur, Maharashtra, India",
    "phone": "+91 9767429509",
    "rating": 4.3,
    "verified": true
  },
  {
    "id": 130,
    "name": "Jaripatka Metal Recycling Center",
    "type": "metal",
    "state": "Maharashtra",
    "district": "Nagpur",
    "city": "Nagpur",
    "pincode": "440014",
    "lat": 21.234053,
    "lng": 79.01638,
    "address": "Jaripatka, Nagpur, Maharashtra, India",
    "phone": "+91 9275956167",
    "rating": 3.6,
    "verified": false
  },
  {
    "id": 131,
    "name": "Sadar Scrap Recycling Center",
    "type": "scrap",
    "state": "Maharashtra",
    "district": "Nagpur",
    "city": "Nagpur",
    "pincode": "440001",
    "lat": 21.052406,
    "lng": 78.988085,
    "address": "Sadar, Nagpur, Maharashtra, India",
    "phone": "+91 9744497618",
    "rating": 4.5,
    "verified": false
  },
  {
    "id": 132,
    "name": "Manewada Scrap Recycling Center",
    "type": "scrap",
    "state": "Maharashtra",
    "district": "Nagpur",
    "city": "Nagpur",
    "pincode": "440024",
    "lat": 21.158213,
    "lng": 79.010987,
    "address": "Manewada, Nagpur, Maharashtra, India",
    "phone": "+91 9763587123",
    "rating": 3.9,
    "verified": false
  },
  {
    "id": 133,
    "name": "Sadar Plastic Recycling Center",
    "type": "plastic",
    "state": "Maharashtra",
    "district": "Nagpur",
    "city": "Nagpur",
    "pincode": "440001",
    "lat": 21.059693,
    "lng": 79.121422,
    "address": "Sadar, Nagpur, Maharashtra, India",
    "phone": "+91 9619336177",
    "rating": 3.5,
    "verified": false
  },
  {
    "id": 134,
    "name": "Kamptee Road Glass Recycling Center",
    "type": "glass",
    "state": "Maharashtra",
    "district": "Nagpur",
    "city": "Nagpur",
    "pincode": "440026",
    "lat": 21.094232,
    "lng": 78.978947,
    "address": "Kamptee Road, Nagpur, Maharashtra, India",
    "phone": "+91 9620573137",
    "rating": 3.6,
    "verified": false
  },
  {
    "id": 135,
    "name": "Jaripatka Ewaste Recycling Center",
    "type": "ewaste",
    "state": "Maharashtra",
    "district": "Nagpur",
    "city": "Nagpur",
    "pincode": "440014",
    "lat": 21.234465,
    "lng": 79.1517,
    "address": "Jaripatka, Nagpur, Maharashtra, India",
    "phone": "+91 9348055312",
    "rating": 3.7,
    "verified": true
  },
  {
    "id": 136,
    "name": "Pratap Nagar Glass Recycling Center",
    "type": "glass",
    "state": "Maharashtra",
    "district": "Nagpur",
    "city": "Nagpur",
    "pincode": "440022",
    "lat": 21.097082,
    "lng": 79.075014,
    "address": "Pratap Nagar, Nagpur, Maharashtra, India",
    "phone": "+91 9599312765",
    "rating": 4.3,
    "verified": true
  },
  {
    "id": 137,
    "name": "Trimurti Nagar Metal Recycling Center",
    "type": "metal",
    "state": "Maharashtra",
    "district": "Nagpur",
    "city": "Nagpur",
    "pincode": "440022",
    "lat": 21.052539,
    "lng": 78.96704,
    "address": "Trimurti Nagar, Nagpur, Maharashtra, India",
    "phone": "+91 9954267909",
    "rating": 4.2,
    "verified": true
  },
  {
    "id": 138,
    "name": "Besa Metal Recycling Center",
    "type": "metal",
    "state": "Maharashtra",
    "district": "Nagpur",
    "city": "Nagpur",
    "pincode": "440037",
    "lat": 21.186829,
    "lng": 78.978874,
    "address": "Besa, Nagpur, Maharashtra, India",
    "phone": "+91 9468446649",
    "rating": 4.6,
    "verified": false
  },
  {
    "id": 139,
    "name": "Wardhaman Nagar Glass Recycling Center",
    "type": "glass",
    "state": "Maharashtra",
    "district": "Nagpur",
    "city": "Nagpur",
    "pincode": "440008",
    "lat": 21.238951,
    "lng": 79.155773,
    "address": "Wardhaman Nagar, Nagpur, Maharashtra, India",
    "phone": "+91 9979694458",
    "rating": 4.0,
    "verified": false
  },
  {
    "id": 140,
    "name": "Jaripatka Glass Recycling Center",
    "type": "glass",
    "state": "Maharashtra",
    "district": "Nagpur",
    "city": "Nagpur",
    "pincode": "440014",
    "lat": 21.0824,
    "lng": 79.091573,
    "address": "Jaripatka, Nagpur, Maharashtra, India",
    "phone": "+91 9227176083",
    "rating": 4.5,
    "verified": false
  },
  {
    "id": 141,
    "name": "Wardhaman Nagar Paper Recycling Center",
    "type": "paper",
    "state": "Maharashtra",
    "district": "Nagpur",
    "city": "Nagpur",
    "pincode": "440008",
    "lat": 21.094287,
    "lng": 79.159323,
    "address": "Wardhaman Nagar, Nagpur, Maharashtra, India",
    "phone": "+91 9344270789",
    "rating": 4.0,
    "verified": false
  },
  {
    "id": 142,
    "name": "Koradi Road Glass Recycling Center",
    "type": "glass",
    "state": "Maharashtra",
    "district": "Nagpur",
    "city": "Nagpur",
    "pincode": "440030",
    "lat": 21.198388,
    "lng": 79.16195,
    "address": "Koradi Road, Nagpur, Maharashtra, India",
    "phone": "+91 9859186514",
    "rating": 4.0,
    "verified": true
  },
  {
    "id": 143,
    "name": "Wardhaman Nagar Metal Recycling Center",
    "type": "metal",
    "state": "Maharashtra",
    "district": "Nagpur",
    "city": "Nagpur",
    "pincode": "440008",
    "lat": 21.086926,
    "lng": 78.968223,
    "address": "Wardhaman Nagar, Nagpur, Maharashtra, India",
    "phone": "+91 9249571947",
    "rating": 4.3,
    "verified": true
  },
  {
    "id": 144,
    "name": "Kamptee Road Paper Recycling Center",
    "type": "paper",
    "state": "Maharashtra",
    "district": "Nagpur",
    "city": "Nagpur",
    "pincode": "440026",
    "lat": 21.144067,
    "lng": 79.131537,
    "address": "Kamptee Road, Nagpur, Maharashtra, India",
    "phone": "+91 9138587216",
    "rating": 4.0,
    "verified": false
  },
  {
    "id": 145,
    "name": "Jaripatka Ewaste Recycling Center",
    "type": "ewaste",
    "state": "Maharashtra",
    "district": "Nagpur",
    "city": "Nagpur",
    "pincode": "440014",
    "lat": 21.163283,
    "lng": 78.981391,
    "address": "Jaripatka, Nagpur, Maharashtra, India",
    "phone": "+91 9405567334",
    "rating": 4.6,
    "verified": true
  },
  {
    "id": 146,
    "name": "Jaripatka Paper Recycling Center",
    "type": "paper",
    "state": "Maharashtra",
    "district": "Nagpur",
    "city": "Nagpur",
    "pincode": "440014",
    "lat": 21.225661,
    "lng": 79.029929,
    "address": "Jaripatka, Nagpur, Maharashtra, India",
    "phone": "+91 9876714492",
    "rating": 4.8,
    "verified": false
  },
  {
    "id": 147,
    "name": "Sadar Plastic Recycling Center",
    "type": "plastic",
    "state": "Maharashtra",
    "district": "Nagpur",
    "city": "Nagpur",
    "pincode": "440001",
    "lat": 21.120185,
    "lng": 79.009972,
    "address": "Sadar, Nagpur, Maharashtra, India",
    "phone": "+91 9354298655",
    "rating": 4.9,
    "verified": false
  },
  {
    "id": 148,
    "name": "Jaripatka Metal Recycling Center",
    "type": "metal",
    "state": "Maharashtra",
    "district": "Nagpur",
    "city": "Nagpur",
    "pincode": "440014",
    "lat": 21.181586,
    "lng": 78.987676,
    "address": "Jaripatka, Nagpur, Maharashtra, India",
    "phone": "+91 9888130453",
    "rating": 3.9,
    "verified": true
  },
  {
    "id": 149,
    "name": "Kamptee Road Ewaste Recycling Center",
    "type": "ewaste",
    "state": "Maharashtra",
    "district": "Nagpur",
    "city": "Nagpur",
    "pincode": "440026",
    "lat": 21.231143,
    "lng": 79.070724,
    "address": "Kamptee Road, Nagpur, Maharashtra, India",
    "phone": "+91 9597380406",
    "rating": 4.0,
    "verified": false
  },
  {
    "id": 150,
    "name": "Nandanvan Plastic Recycling Center",
    "type": "plastic",
    "state": "Maharashtra",
    "district": "Nagpur",
    "city": "Nagpur",
    "pincode": "440009",
    "lat": 21.178857,
    "lng": 79.1104,
    "address": "Nandanvan, Nagpur, Maharashtra, India",
    "phone": "+91 9426384064",
    "rating": 4.0,
    "verified": true
  },
  {
    "id": 151,
    "name": "Dharampeth Scrap Recycling Center",
    "type": "scrap",
    "state": "Maharashtra",
    "district": "Nagpur",
    "city": "Nagpur",
    "pincode": "440010",
    "lat": 21.217646,
    "lng": 79.010967,
    "address": "Dharampeth, Nagpur, Maharashtra, India",
    "phone": "+91 9712407308",
    "rating": 3.6,
    "verified": true
  },
  {
    "id": 152,
    "name": "Manewada Metal Recycling Center",
    "type": "metal",
    "state": "Maharashtra",
    "district": "Nagpur",
    "city": "Nagpur",
    "pincode": "440024",
    "lat": 21.209794,
    "lng": 79.068693,
    "address": "Manewada, Nagpur, Maharashtra, India",
    "phone": "+91 9249464569",
    "rating": 4.6,
    "verified": true
  },
  {
    "id": 153,
    "name": "Nandanvan Paper Recycling Center",
    "type": "paper",
    "state": "Maharashtra",
    "district": "Nagpur",
    "city": "Nagpur",
    "pincode": "440009",
    "lat": 21.167317,
    "lng": 78.976852,
    "address": "Nandanvan, Nagpur, Maharashtra, India",
    "phone": "+91 9265150019",
    "rating": 3.7,
    "verified": true
  },
  {
    "id": 154,
    "name": "Sitabuldi Plastic Recycling Center",
    "type": "plastic",
    "state": "Maharashtra",
    "district": "Nagpur",
    "city": "Nagpur",
    "pincode": "440012",
    "lat": 21.201223,
    "lng": 78.966848,
    "address": "Sitabuldi, Nagpur, Maharashtra, India",
    "phone": "+91 9582550267",
    "rating": 4.2,
    "verified": false
  },
  {
    "id": 155,
    "name": "Nandanvan Ewaste Recycling Center",
    "type": "ewaste",
    "state": "Maharashtra",
    "district": "Nagpur",
    "city": "Nagpur",
    "pincode": "440009",
    "lat": 21.230775,
    "lng": 79.174315,
    "address": "Nandanvan, Nagpur, Maharashtra, India",
    "phone": "+91 9311728204",
    "rating": 4.3,
    "verified": true
  },
  {
    "id": 156,
    "name": "Wardhaman Nagar Scrap Recycling Center",
    "type": "scrap",
    "state": "Maharashtra",
    "district": "Nagpur",
    "city": "Nagpur",
    "pincode": "440008",
    "lat": 21.102455,
    "lng": 78.986224,
    "address": "Wardhaman Nagar, Nagpur, Maharashtra, India",
    "phone": "+91 9852352147",
    "rating": 4.5,
    "verified": true
  },
  {
    "id": 157,
    "name": "Sitabuldi Ewaste Recycling Center",
    "type": "ewaste",
    "state": "Maharashtra",
    "district": "Nagpur",
    "city": "Nagpur",
    "pincode": "440012",
    "lat": 21.085187,
    "lng": 79.089505,
    "address": "Sitabuldi, Nagpur, Maharashtra, India",
    "phone": "+91 9204811472",
    "rating": 4.9,
    "verified": false
  },
  {
    "id": 158,
    "name": "Manewada Metal Recycling Center",
    "type": "metal",
    "state": "Maharashtra",
    "district": "Nagpur",
    "city": "Nagpur",
    "pincode": "440024",
    "lat": 21.073641,
    "lng": 79.107615,
    "address": "Manewada, Nagpur, Maharashtra, India",
    "phone": "+91 9484493571",
    "rating": 4.5,
    "verified": false
  },
  {
    "id": 159,
    "name": "Manewada Metal Recycling Center",
    "type": "metal",
    "state": "Maharashtra",
    "district": "Nagpur",
    "city": "Nagpur",
    "pincode": "440024",
    "lat": 21.196678,
    "lng": 79.058551,
    "address": "Manewada, Nagpur, Maharashtra, India",
    "phone": "+91 9118414313",
    "rating": 4.6,
    "verified": false
  },
  {
    "id": 160,
    "name": "Jaripatka Paper Recycling Center",
    "type": "paper",
    "state": "Maharashtra",
    "district": "Nagpur",
    "city": "Nagpur",
    "pincode": "440014",
    "lat": 21.051443,
    "lng": 78.992049,
    "address": "Jaripatka, Nagpur, Maharashtra, India",
    "phone": "+91 9192720798",
    "rating": 4.5,
    "verified": true
  },
  {
    "id": 161,
    "name": "Hingna Paper Recycling Center",
    "type": "paper",
    "state": "Maharashtra",
    "district": "Nagpur",
    "city": "Nagpur",
    "pincode": "440016",
    "lat": 21.052075,
    "lng": 78.987499,
    "address": "Hingna, Nagpur, Maharashtra, India",
    "phone": "+91 9187140694",
    "rating": 4.3,
    "verified": true
  },
  {
    "id": 162,
    "name": "Sitabuldi Metal Recycling Center",
    "type": "metal",
    "state": "Maharashtra",
    "district": "Nagpur",
    "city": "Nagpur",
    "pincode": "440012",
    "lat": 21.248209,
    "lng": 78.966208,
    "address": "Sitabuldi, Nagpur, Maharashtra, India",
    "phone": "+91 9718704881",
    "rating": 3.9,
    "verified": true
  },
  {
    "id": 163,
    "name": "Trimurti Nagar Scrap Recycling Center",
    "type": "scrap",
    "state": "Maharashtra",
    "district": "Nagpur",
    "city": "Nagpur",
    "pincode": "440022",
    "lat": 21.08646,
    "lng": 79.047361,
    "address": "Trimurti Nagar, Nagpur, Maharashtra, India",
    "phone": "+91 9482799353",
    "rating": 4.6,
    "verified": true
  },
  {
    "id": 164,
    "name": "Besa Ewaste Recycling Center",
    "type": "ewaste",
    "state": "Maharashtra",
    "district": "Nagpur",
    "city": "Nagpur",
    "pincode": "440037",
    "lat": 21.125701,
    "lng": 79.072684,
    "address": "Besa, Nagpur, Maharashtra, India",
    "phone": "+91 9990651999",
    "rating": 3.6,
    "verified": true
  },
  {
    "id": 165,
    "name": "Dharampeth Plastic Recycling Center",
    "type": "plastic",
    "state": "Maharashtra",
    "district": "Nagpur",
    "city": "Nagpur",
    "pincode": "440010",
    "lat": 21.180548,
    "lng": 79.070809,
    "address": "Dharampeth, Nagpur, Maharashtra, India",
    "phone": "+91 9811481795",
    "rating": 3.8,
    "verified": true
  },
  {
    "id": 166,
    "name": "Nandanvan Paper Recycling Center",
    "type": "paper",
    "state": "Maharashtra",
    "district": "Nagpur",
    "city": "Nagpur",
    "pincode": "440009",
    "lat": 21.071268,
    "lng": 79.181088,
    "address": "Nandanvan, Nagpur, Maharashtra, India",
    "phone": "+91 9176117453",
    "rating": 3.8,
    "verified": false
  },
  {
    "id": 167,
    "name": "Sadar Paper Recycling Center",
    "type": "paper",
    "state": "Maharashtra",
    "district": "Nagpur",
    "city": "Nagpur",
    "pincode": "440001",
    "lat": 21.1243,
    "lng": 79.182111,
    "address": "Sadar, Nagpur, Maharashtra, India",
    "phone": "+91 9409164739",
    "rating": 3.8,
    "verified": true
  },
  {
    "id": 168,
    "name": "Trimurti Nagar Scrap Recycling Center",
    "type": "scrap",
    "state": "Maharashtra",
    "district": "Nagpur",
    "city": "Nagpur",
    "pincode": "440022",
    "lat": 21.062665,
    "lng": 79.127539,
    "address": "Trimurti Nagar, Nagpur, Maharashtra, India",
    "phone": "+91 9797890115",
    "rating": 4.1,
    "verified": false
  },
  {
    "id": 169,
    "name": "Itwari Metal Recycling Center",
    "type": "metal",
    "state": "Maharashtra",
    "district": "Nagpur",
    "city": "Nagpur",
    "pincode": "440002",
    "lat": 21.05859,
    "lng": 79.098278,
    "address": "Itwari, Nagpur, Maharashtra, India",
    "phone": "+91 9177090694",
    "rating": 4.5,
    "verified": true
  },
  {
    "id": 170,
    "name": "Sitabuldi Metal Recycling Center",
    "type": "metal",
    "state": "Maharashtra",
    "district": "Nagpur",
    "city": "Nagpur",
    "pincode": "440012",
    "lat": 21.102773,
    "lng": 79.173744,
    "address": "Sitabuldi, Nagpur, Maharashtra, India",
    "phone": "+91 9532355167",
    "rating": 5.0,
    "verified": true
  },
  {
    "id": 171,
    "name": "Pratap Nagar Scrap Recycling Center",
    "type": "scrap",
    "state": "Maharashtra",
    "district": "Nagpur",
    "city": "Nagpur",
    "pincode": "440022",
    "lat": 21.140056,
    "lng": 79.069743,
    "address": "Pratap Nagar, Nagpur, Maharashtra, India",
    "phone": "+91 9631768376",
    "rating": 3.7,
    "verified": false
  },
  {
    "id": 172,
    "name": "Kamptee Road Plastic Recycling Center",
    "type": "plastic",
    "state": "Maharashtra",
    "district": "Nagpur",
    "city": "Nagpur",
    "pincode": "440026",
    "lat": 21.230042,
    "lng": 79.031529,
    "address": "Kamptee Road, Nagpur, Maharashtra, India",
    "phone": "+91 9634530266",
    "rating": 4.9,
    "verified": true
  },
  {
    "id": 173,
    "name": "Nandanvan Metal Recycling Center",
    "type": "metal",
    "state": "Maharashtra",
    "district": "Nagpur",
    "city": "Nagpur",
    "pincode": "440009",
    "lat": 21.182328,
    "lng": 79.130266,
    "address": "Nandanvan, Nagpur, Maharashtra, India",
    "phone": "+91 9265149170",
    "rating": 4.3,
    "verified": false
  },
  {
    "id": 174,
    "name": "Dharampeth Glass Recycling Center",
    "type": "glass",
    "state": "Maharashtra",
    "district": "Nagpur",
    "city": "Nagpur",
    "pincode": "440010",
    "lat": 21.236381,
    "lng": 79.152759,
    "address": "Dharampeth, Nagpur, Maharashtra, India",
    "phone": "+91 9415385973",
    "rating": 3.9,
    "verified": false
  },
  {
    "id": 175,
    "name": "Dharampeth Scrap Recycling Center",
    "type": "scrap",
    "state": "Maharashtra",
    "district": "Nagpur",
    "city": "Nagpur",
    "pincode": "440010",
    "lat": 21.080318,
    "lng": 79.083198,
    "address": "Dharampeth, Nagpur, Maharashtra, India",
    "phone": "+91 9266860963",
    "rating": 5.0,
    "verified": false
  },
  {
    "id": 176,
    "name": "Kamptee Road Metal Recycling Center",
    "type": "metal",
    "state": "Maharashtra",
    "district": "Nagpur",
    "city": "Nagpur",
    "pincode": "440026",
    "lat": 21.185317,
    "lng": 79.013284,
    "address": "Kamptee Road, Nagpur, Maharashtra, India",
    "phone": "+91 9744855581",
    "rating": 4.0,
    "verified": true
  },
  {
    "id": 177,
    "name": "Nandanvan Metal Recycling Center",
    "type": "metal",
    "state": "Maharashtra",
    "district": "Nagpur",
    "city": "Nagpur",
    "pincode": "440009",
    "lat": 21.112066,
    "lng": 79.077071,
    "address": "Nandanvan, Nagpur, Maharashtra, India",
    "phone": "+91 9165955416",
    "rating": 4.8,
    "verified": true
  },
  {
    "id": 178,
    "name": "Pratap Nagar Paper Recycling Center",
    "type": "paper",
    "state": "Maharashtra",
    "district": "Nagpur",
    "city": "Nagpur",
    "pincode": "440022",
    "lat": 21.217415,
    "lng": 79.118299,
    "address": "Pratap Nagar, Nagpur, Maharashtra, India",
    "phone": "+91 9263893104",
    "rating": 4.9,
    "verified": false
  },
  {
    "id": 179,
    "name": "Sadar Ewaste Recycling Center",
    "type": "ewaste",
    "state": "Maharashtra",
    "district": "Nagpur",
    "city": "Nagpur",
    "pincode": "440001",
    "lat": 21.074107,
    "lng": 79.083223,
    "address": "Sadar, Nagpur, Maharashtra, India",
    "phone": "+91 9400257232",
    "rating": 3.7,
    "verified": true
  },
  {
    "id": 180,
    "name": "Kamptee Road Plastic Recycling Center",
    "type": "plastic",
    "state": "Maharashtra",
    "district": "Nagpur",
    "city": "Nagpur",
    "pincode": "440026",
    "lat": 21.061781,
    "lng": 79.016125,
    "address": "Kamptee Road, Nagpur, Maharashtra, India",
    "phone": "+91 9630398761",
    "rating": 4.3,
    "verified": true
  },
  {
    "id": 181,
    "name": "Hingna Ewaste Recycling Center",
    "type": "ewaste",
    "state": "Maharashtra",
    "district": "Nagpur",
    "city": "Nagpur",
    "pincode": "440016",
    "lat": 21.143525,
    "lng": 79.100093,
    "address": "Hingna, Nagpur, Maharashtra, India",
    "phone": "+91 9555416593",
    "rating": 4.9,
    "verified": true
  },
  {
    "id": 182,
    "name": "Sitabuldi Metal Recycling Center",
    "type": "metal",
    "state": "Maharashtra",
    "district": "Nagpur",
    "city": "Nagpur",
    "pincode": "440012",
    "lat": 21.23094,
    "lng": 79.120702,
    "address": "Sitabuldi, Nagpur, Maharashtra, India",
    "phone": "+91 9975383719",
    "rating": 3.5,
    "verified": true
  },
  {
    "id": 183,
    "name": "Kamptee Road Scrap Recycling Center",
    "type": "scrap",
    "state": "Maharashtra",
    "district": "Nagpur",
    "city": "Nagpur",
    "pincode": "440026",
    "lat": 21.190362,
    "lng": 78.993782,
    "address": "Kamptee Road, Nagpur, Maharashtra, India",
    "phone": "+91 9393692471",
    "rating": 4.1,
    "verified": true
  },
  {
    "id": 184,
    "name": "Kamptee Road Paper Recycling Center",
    "type": "paper",
    "state": "Maharashtra",
    "district": "Nagpur",
    "city": "Nagpur",
    "pincode": "440026",
    "lat": 21.137208,
    "lng": 79.103775,
    "address": "Kamptee Road, Nagpur, Maharashtra, India",
    "phone": "+91 9551943330",
    "rating": 4.5,
    "verified": false
  },
  {
    "id": 185,
    "name": "Hingna Paper Recycling Center",
    "type": "paper",
    "state": "Maharashtra",
    "district": "Nagpur",
    "city": "Nagpur",
    "pincode": "440016",
    "lat": 21.052423,
    "lng": 79.168446,
    "address": "Hingna, Nagpur, Maharashtra, India",
    "phone": "+91 9722198045",
    "rating": 4.5,
    "verified": false
  },
  {
    "id": 186,
    "name": "Sitabuldi Ewaste Recycling Center",
    "type": "ewaste",
    "state": "Maharashtra",
    "district": "Nagpur",
    "city": "Nagpur",
    "pincode": "440012",
    "lat": 21.070734,
    "lng": 79.039095,
    "address": "Sitabuldi, Nagpur, Maharashtra, India",
    "phone": "+91 9989798137",
    "rating": 3.5,
    "verified": false
  },
  {
    "id": 187,
    "name": "Manewada Plastic Recycling Center",
    "type": "plastic",
    "state": "Maharashtra",
    "district": "Nagpur",
    "city": "Nagpur",
    "pincode": "440024",
    "lat": 21.114591,
    "lng": 79.150121,
    "address": "Manewada, Nagpur, Maharashtra, India",
    "phone": "+91 9846404280",
    "rating": 3.9,
    "verified": true
  },
  {
    "id": 188,
    "name": "Wardhaman Nagar Scrap Recycling Center",
    "type": "scrap",
    "state": "Maharashtra",
    "district": "Nagpur",
    "city": "Nagpur",
    "pincode": "440008",
    "lat": 21.231807,
    "lng": 79.186067,
    "address": "Wardhaman Nagar, Nagpur, Maharashtra, India",
    "phone": "+91 9810241100",
    "rating": 4.1,
    "verified": true
  },
  {
    "id": 189,
    "name": "Itwari Scrap Recycling Center",
    "type": "scrap",
    "state": "Maharashtra",
    "district": "Nagpur",
    "city": "Nagpur",
    "pincode": "440002",
    "lat": 21.248808,
    "lng": 79.006091,
    "address": "Itwari, Nagpur, Maharashtra, India",
    "phone": "+91 9299810259",
    "rating": 3.9,
    "verified": true
  },
  {
    "id": 190,
    "name": "Manewada Ewaste Recycling Center",
    "type": "ewaste",
    "state": "Maharashtra",
    "district": "Nagpur",
    "city": "Nagpur",
    "pincode": "440024",
    "lat": 21.136525,
    "lng": 79.187375,
    "address": "Manewada, Nagpur, Maharashtra, India",
    "phone": "+91 9130326790",
    "rating": 3.7,
    "verified": false
  },
  {
    "id": 191,
    "name": "Itwari Ewaste Recycling Center",
    "type": "ewaste",
    "state": "Maharashtra",
    "district": "Nagpur",
    "city": "Nagpur",
    "pincode": "440002",
    "lat": 21.146911,
    "lng": 79.041517,
    "address": "Itwari, Nagpur, Maharashtra, India",
    "phone": "+91 9328356403",
    "rating": 4.3,
    "verified": true
  },
  {
    "id": 192,
    "name": "Wardhaman Nagar Paper Recycling Center",
    "type": "paper",
    "state": "Maharashtra",
    "district": "Nagpur",
    "city": "Nagpur",
    "pincode": "440008",
    "lat": 21.226357,
    "lng": 79.145218,
    "address": "Wardhaman Nagar, Nagpur, Maharashtra, India",
    "phone": "+91 9156320940",
    "rating": 5.0,
    "verified": false
  },
  {
    "id": 193,
    "name": "Nandanvan Plastic Recycling Center",
    "type": "plastic",
    "state": "Maharashtra",
    "district": "Nagpur",
    "city": "Nagpur",
    "pincode": "440009",
    "lat": 21.072792,
    "lng": 79.13287,
    "address": "Nandanvan, Nagpur, Maharashtra, India",
    "phone": "+91 9652123784",
    "rating": 4.7,
    "verified": true
  },
  {
    "id": 194,
    "name": "Trimurti Nagar Glass Recycling Center",
    "type": "glass",
    "state": "Maharashtra",
    "district": "Nagpur",
    "city": "Nagpur",
    "pincode": "440022",
    "lat": 21.05238,
    "lng": 79.037872,
    "address": "Trimurti Nagar, Nagpur, Maharashtra, India",
    "phone": "+91 9464643245",
    "rating": 4.2,
    "verified": true
  },
  {
    "id": 195,
    "name": "Itwari Paper Recycling Center",
    "type": "paper",
    "state": "Maharashtra",
    "district": "Nagpur",
    "city": "Nagpur",
    "pincode": "440002",
    "lat": 21.219924,
    "lng": 79.094241,
    "address": "Itwari, Nagpur, Maharashtra, India",
    "phone": "+91 9452988304",
    "rating": 4.5,
    "verified": true
  },
  {
    "id": 196,
    "name": "Jaripatka Paper Recycling Center",
    "type": "paper",
    "state": "Maharashtra",
    "district": "Nagpur",
    "city": "Nagpur",
    "pincode": "440014",
    "lat": 21.097851,
    "lng": 79.049814,
    "address": "Jaripatka, Nagpur, Maharashtra, India",
    "phone": "+91 9936296136",
    "rating": 4.9,
    "verified": true
  },
  {
    "id": 197,
    "name": "Sadar Plastic Recycling Center",
    "type": "plastic",
    "state": "Maharashtra",
    "district": "Nagpur",
    "city": "Nagpur",
    "pincode": "440001",
    "lat": 21.217629,
    "lng": 79.086301,
    "address": "Sadar, Nagpur, Maharashtra, India",
    "phone": "+91 9779279822",
    "rating": 4.5,
    "verified": true
  },
  {
    "id": 198,
    "name": "Nandanvan Metal Recycling Center",
    "type": "metal",
    "state": "Maharashtra",
    "district": "Nagpur",
    "city": "Nagpur",
    "pincode": "440009",
    "lat": 21.208445,
    "lng": 78.989799,
    "address": "Nandanvan, Nagpur, Maharashtra, India",
    "phone": "+91 9623339510",
    "rating": 4.1,
    "verified": false
  },
  {
    "id": 199,
    "name": "Pratap Nagar Scrap Recycling Center",
    "type": "scrap",
    "state": "Maharashtra",
    "district": "Nagpur",
    "city": "Nagpur",
    "pincode": "440022",
    "lat": 21.189829,
    "lng": 79.02115,
    "address": "Pratap Nagar, Nagpur, Maharashtra, India",
    "phone": "+91 9483932270",
    "rating": 3.8,
    "verified": false
  },
  {
    "id": 200,
    "name": "Mahal Ewaste Recycling Center",
    "type": "ewaste",
    "state": "Maharashtra",
    "district": "Nagpur",
    "city": "Nagpur",
    "pincode": "440002",
    "lat": 21.209117,
    "lng": 79.189276,
    "address": "Mahal, Nagpur, Maharashtra, India",
    "phone": "+91 9381975609",
    "rating": 4.5,
    "verified": true
  },
  {
    "id": 201,
    "name": "Nandanvan Paper Recycling Center",
    "type": "paper",
    "state": "Maharashtra",
    "district": "Nagpur",
    "city": "Nagpur",
    "pincode": "440009",
    "lat": 21.201595,
    "lng": 79.003933,
    "address": "Nandanvan, Nagpur, Maharashtra, India",
    "phone": "+91 9510795259",
    "rating": 4.1,
    "verified": true
  },
  {
    "id": 202,
    "name": "Hingna Paper Recycling Center",
    "type": "paper",
    "state": "Maharashtra",
    "district": "Nagpur",
    "city": "Nagpur",
    "pincode": "440016",
    "lat": 21.131535,
    "lng": 79.151155,
    "address": "Hingna, Nagpur, Maharashtra, India",
    "phone": "+91 9552272929",
    "rating": 3.6,
    "verified": true
  },
  {
    "id": 203,
    "name": "Mahal Ewaste Recycling Center",
    "type": "ewaste",
    "state": "Maharashtra",
    "district": "Nagpur",
    "city": "Nagpur",
    "pincode": "440002",
    "lat": 21.087781,
    "lng": 79.045707,
    "address": "Mahal, Nagpur, Maharashtra, India",
    "phone": "+91 9527056901",
    "rating": 4.4,
    "verified": false
  },
  {
    "id": 204,
    "name": "Kamptee Road Ewaste Recycling Center",
    "type": "ewaste",
    "state": "Maharashtra",
    "district": "Nagpur",
    "city": "Nagpur",
    "pincode": "440026",
    "lat": 21.179728,
    "lng": 79.148154,
    "address": "Kamptee Road, Nagpur, Maharashtra, India",
    "phone": "+91 9183300158",
    "rating": 3.7,
    "verified": true
  },
  {
    "id": 205,
    "name": "Jaripatka Ewaste Recycling Center",
    "type": "ewaste",
    "state": "Maharashtra",
    "district": "Nagpur",
    "city": "Nagpur",
    "pincode": "440014",
    "lat": 21.153205,
    "lng": 79.155407,
    "address": "Jaripatka, Nagpur, Maharashtra, India",
    "phone": "+91 9645961821",
    "rating": 4.5,
    "verified": false
  },
  {
    "id": 206,
    "name": "Wardhaman Nagar Metal Recycling Center",
    "type": "metal",
    "state": "Maharashtra",
    "district": "Nagpur",
    "city": "Nagpur",
    "pincode": "440008",
    "lat": 21.181587,
    "lng": 79.111575,
    "address": "Wardhaman Nagar, Nagpur, Maharashtra, India",
    "phone": "+91 9456501722",
    "rating": 4.9,
    "verified": false
  },
  {
    "id": 207,
    "name": "Hingna Glass Recycling Center",
    "type": "glass",
    "state": "Maharashtra",
    "district": "Nagpur",
    "city": "Nagpur",
    "pincode": "440016",
    "lat": 21.130561,
    "lng": 79.143792,
    "address": "Hingna, Nagpur, Maharashtra, India",
    "phone": "+91 9975642463",
    "rating": 4.1,
    "verified": true
  },
  {
    "id": 208,
    "name": "Besa Plastic Recycling Center",
    "type": "plastic",
    "state": "Maharashtra",
    "district": "Nagpur",
    "city": "Nagpur",
    "pincode": "440037",
    "lat": 21.111211,
    "lng": 79.073834,
    "address": "Besa, Nagpur, Maharashtra, India",
    "phone": "+91 9957729534",
    "rating": 3.9,
    "verified": false
  },
  {
    "id": 209,
    "name": "Koradi Road Scrap Recycling Center",
    "type": "scrap",
    "state": "Maharashtra",
    "district": "Nagpur",
    "city": "Nagpur",
    "pincode": "440030",
    "lat": 21.243209,
    "lng": 79.076131,
    "address": "Koradi Road, Nagpur, Maharashtra, India",
    "phone": "+91 9507189919",
    "rating": 4.4,
    "verified": false
  },
  {
    "id": 210,
    "name": "Wardhaman Nagar Scrap Recycling Center",
    "type": "scrap",
    "state": "Maharashtra",
    "district": "Nagpur",
    "city": "Nagpur",
    "pincode": "440008",
    "lat": 21.063093,
    "lng": 79.016815,
    "address": "Wardhaman Nagar, Nagpur, Maharashtra, India",
    "phone": "+91 9323642784",
    "rating": 3.9,
    "verified": false
  },
  {
    "id": 211,
    "name": "Mankapur Glass Recycling Center",
    "type": "glass",
    "state": "Maharashtra",
    "district": "Nagpur",
    "city": "Nagpur",
    "pincode": "440030",
    "lat": 21.088097,
    "lng": 79.189781,
    "address": "Mankapur, Nagpur, Maharashtra, India",
    "phone": "+91 9670768202",
    "rating": 4.9,
    "verified": false
  },
  {
    "id": 212,
    "name": "Itwari Scrap Recycling Center",
    "type": "scrap",
    "state": "Maharashtra",
    "district": "Nagpur",
    "city": "Nagpur",
    "pincode": "440002",
    "lat": 21.083729,
    "lng": 79.09307,
    "address": "Itwari, Nagpur, Maharashtra, India",
    "phone": "+91 9582873698",
    "rating": 4.9,
    "verified": false
  },
  {
    "id": 213,
    "name": "Sitabuldi Glass Recycling Center",
    "type": "glass",
    "state": "Maharashtra",
    "district": "Nagpur",
    "city": "Nagpur",
    "pincode": "440012",
    "lat": 21.227785,
    "lng": 79.088147,
    "address": "Sitabuldi, Nagpur, Maharashtra, India",
    "phone": "+91 9819040362",
    "rating": 4.2,
    "verified": true
  },
  {
    "id": 214,
    "name": "Pratap Nagar Paper Recycling Center",
    "type": "paper",
    "state": "Maharashtra",
    "district": "Nagpur",
    "city": "Nagpur",
    "pincode": "440022",
    "lat": 21.241828,
    "lng": 79.165789,
    "address": "Pratap Nagar, Nagpur, Maharashtra, India",
    "phone": "+91 9870625512",
    "rating": 3.8,
    "verified": true
  },
  {
    "id": 215,
    "name": "Trimurti Nagar Paper Recycling Center",
    "type": "paper",
    "state": "Maharashtra",
    "district": "Nagpur",
    "city": "Nagpur",
    "pincode": "440022",
    "lat": 21.142987,
    "lng": 79.043306,
    "address": "Trimurti Nagar, Nagpur, Maharashtra, India",
    "phone": "+91 9557663097",
    "rating": 4.2,
    "verified": true
  },
  {
    "id": 216,
    "name": "Hingna Scrap Recycling Center",
    "type": "scrap",
    "state": "Maharashtra",
    "district": "Nagpur",
    "city": "Nagpur",
    "pincode": "440016",
    "lat": 21.166345,
    "lng": 79.145121,
    "address": "Hingna, Nagpur, Maharashtra, India",
    "phone": "+91 9342561851",
    "rating": 4.1,
    "verified": true
  },
  {
    "id": 217,
    "name": "Sitabuldi Paper Recycling Center",
    "type": "paper",
    "state": "Maharashtra",
    "district": "Nagpur",
    "city": "Nagpur",
    "pincode": "440012",
    "lat": 21.128493,
    "lng": 79.013106,
    "address": "Sitabuldi, Nagpur, Maharashtra, India",
    "phone": "+91 9998390505",
    "rating": 4.3,
    "verified": true
  },
  {
    "id": 218,
    "name": "Mankapur Metal Recycling Center",
    "type": "metal",
    "state": "Maharashtra",
    "district": "Nagpur",
    "city": "Nagpur",
    "pincode": "440030",
    "lat": 21.233703,
    "lng": 79.101436,
    "address": "Mankapur, Nagpur, Maharashtra, India",
    "phone": "+91 9390643991",
    "rating": 4.2,
    "verified": true
  },
  {
    "id": 219,
    "name": "Sadar Ewaste Recycling Center",
    "type": "ewaste",
    "state": "Maharashtra",
    "district": "Nagpur",
    "city": "Nagpur",
    "pincode": "440001",
    "lat": 21.198515,
    "lng": 79.161624,
    "address": "Sadar, Nagpur, Maharashtra, India",
    "phone": "+91 9859080388",
    "rating": 4.8,
    "verified": true
  },
  {
    "id": 220,
    "name": "Trimurti Nagar Scrap Recycling Center",
    "type": "scrap",
    "state": "Maharashtra",
    "district": "Nagpur",
    "city": "Nagpur",
    "pincode": "440022",
    "lat": 21.11777,
    "lng": 79.024882,
    "address": "Trimurti Nagar, Nagpur, Maharashtra, India",
    "phone": "+91 9533787474",
    "rating": 4.6,
    "verified": true
  },
  {
    "id": 221,
    "name": "Besa Metal Recycling Center",
    "type": "metal",
    "state": "Maharashtra",
    "district": "Nagpur",
    "city": "Nagpur",
    "pincode": "440037",
    "lat": 21.093335,
    "lng": 79.111683,
    "address": "Besa, Nagpur, Maharashtra, India",
    "phone": "+91 9774812857",
    "rating": 4.3,
    "verified": true
  },
  {
    "id": 222,
    "name": "Pratap Nagar Ewaste Recycling Center",
    "type": "ewaste",
    "state": "Maharashtra",
    "district": "Nagpur",
    "city": "Nagpur",
    "pincode": "440022",
    "lat": 21.212122,
    "lng": 78.986771,
    "address": "Pratap Nagar, Nagpur, Maharashtra, India",
    "phone": "+91 9583668586",
    "rating": 4.7,
    "verified": true
  },
  {
    "id": 223,
    "name": "Koradi Road Ewaste Recycling Center",
    "type": "ewaste",
    "state": "Maharashtra",
    "district": "Nagpur",
    "city": "Nagpur",
    "pincode": "440030",
    "lat": 21.187435,
    "lng": 78.97549,
    "address": "Koradi Road, Nagpur, Maharashtra, India",
    "phone": "+91 9633743100",
    "rating": 3.8,
    "verified": false
  },
  {
    "id": 224,
    "name": "Pratap Nagar Ewaste Recycling Center",
    "type": "ewaste",
    "state": "Maharashtra",
    "district": "Nagpur",
    "city": "Nagpur",
    "pincode": "440022",
    "lat": 21.056589,
    "lng": 79.114929,
    "address": "Pratap Nagar, Nagpur, Maharashtra, India",
    "phone": "+91 9177057711",
    "rating": 3.7,
    "verified": true
  },
  {
    "id": 225,
    "name": "Itwari Ewaste Recycling Center",
    "type": "ewaste",
    "state": "Maharashtra",
    "district": "Nagpur",
    "city": "Nagpur",
    "pincode": "440002",
    "lat": 21.184679,
    "lng": 78.950742,
    "address": "Itwari, Nagpur, Maharashtra, India",
    "phone": "+91 9924427638",
    "rating": 4.8,
    "verified": true
  },
  {
    "id": 226,
    "name": "Mahal Paper Recycling Center",
    "type": "paper",
    "state": "Maharashtra",
    "district": "Nagpur",
    "city": "Nagpur",
    "pincode": "440002",
    "lat": 21.19836,
    "lng": 79.132989,
    "address": "Mahal, Nagpur, Maharashtra, India",
    "phone": "+91 9612696986",
    "rating": 4.0,
    "verified": false
  },
  {
    "id": 227,
    "name": "Jaripatka Scrap Recycling Center",
    "type": "scrap",
    "state": "Maharashtra",
    "district": "Nagpur",
    "city": "Nagpur",
    "pincode": "440014",
    "lat": 21.169542,
    "lng": 79.091805,
    "address": "Jaripatka, Nagpur, Maharashtra, India",
    "phone": "+91 9876738148",
    "rating": 4.0,
    "verified": false
  },
  {
    "id": 228,
    "name": "Dharampeth Paper Recycling Center",
    "type": "paper",
    "state": "Maharashtra",
    "district": "Nagpur",
    "city": "Nagpur",
    "pincode": "440010",
    "lat": 21.11734,
    "lng": 79.043755,
    "address": "Dharampeth, Nagpur, Maharashtra, India",
    "phone": "+91 9607675483",
    "rating": 3.8,
    "verified": true
  },
  {
    "id": 229,
    "name": "Mankapur Paper Recycling Center",
    "type": "paper",
    "state": "Maharashtra",
    "district": "Nagpur",
    "city": "Nagpur",
    "pincode": "440030",
    "lat": 21.172054,
    "lng": 79.1825,
    "address": "Mankapur, Nagpur, Maharashtra, India",
    "phone": "+91 9289454349",
    "rating": 4.9,
    "verified": true
  },
  {
    "id": 230,
    "name": "Dharampeth Scrap Recycling Center",
    "type": "scrap",
    "state": "Maharashtra",
    "district": "Nagpur",
    "city": "Nagpur",
    "pincode": "440010",
    "lat": 21.057883,
    "lng": 79.064657,
    "address": "Dharampeth, Nagpur, Maharashtra, India",
    "phone": "+91 9613609948",
    "rating": 4.0,
    "verified": true
  },
  {
    "id": 231,
    "name": "Pratap Nagar Metal Recycling Center",
    "type": "metal",
    "state": "Maharashtra",
    "district": "Nagpur",
    "city": "Nagpur",
    "pincode": "440022",
    "lat": 21.122896,
    "lng": 79.015351,
    "address": "Pratap Nagar, Nagpur, Maharashtra, India",
    "phone": "+91 9790796938",
    "rating": 4.2,
    "verified": false
  },
  {
    "id": 232,
    "name": "Mankapur Plastic Recycling Center",
    "type": "plastic",
    "state": "Maharashtra",
    "district": "Nagpur",
    "city": "Nagpur",
    "pincode": "440030",
    "lat": 21.221536,
    "lng": 79.003647,
    "address": "Mankapur, Nagpur, Maharashtra, India",
    "phone": "+91 9922185725",
    "rating": 4.7,
    "verified": true
  },
  {
    "id": 233,
    "name": "Hingna Paper Recycling Center",
    "type": "paper",
    "state": "Maharashtra",
    "district": "Nagpur",
    "city": "Nagpur",
    "pincode": "440016",
    "lat": 21.223758,
    "lng": 79.195335,
    "address": "Hingna, Nagpur, Maharashtra, India",
    "phone": "+91 9183895671",
    "rating": 3.6,
    "verified": true
  },
  {
    "id": 234,
    "name": "Sadar Paper Recycling Center",
    "type": "paper",
    "state": "Maharashtra",
    "district": "Nagpur",
    "city": "Nagpur",
    "pincode": "440001",
    "lat": 21.057957,
    "lng": 79.191675,
    "address": "Sadar, Nagpur, Maharashtra, India",
    "phone": "+91 9879732191",
    "rating": 4.5,
    "verified": false
  },
  {
    "id": 235,
    "name": "Trimurti Nagar Scrap Recycling Center",
    "type": "scrap",
    "state": "Maharashtra",
    "district": "Nagpur",
    "city": "Nagpur",
    "pincode": "440022",
    "lat": 21.102288,
    "lng": 79.150505,
    "address": "Trimurti Nagar, Nagpur, Maharashtra, India",
    "phone": "+91 9549889692",
    "rating": 3.8,
    "verified": false
  },
  {
    "id": 236,
    "name": "Dharampeth Metal Recycling Center",
    "type": "metal",
    "state": "Maharashtra",
    "district": "Nagpur",
    "city": "Nagpur",
    "pincode": "440010",
    "lat": 21.129156,
    "lng": 79.143055,
    "address": "Dharampeth, Nagpur, Maharashtra, India",
    "phone": "+91 9632733141",
    "rating": 3.8,
    "verified": false
  },
  {
    "id": 237,
    "name": "Mahal Plastic Recycling Center",
    "type": "plastic",
    "state": "Maharashtra",
    "district": "Nagpur",
    "city": "Nagpur",
    "pincode": "440002",
    "lat": 21.069438,
    "lng": 79.05995,
    "address": "Mahal, Nagpur, Maharashtra, India",
    "phone": "+91 9357798925",
    "rating": 5.0,
    "verified": true
  },
  {
    "id": 238,
    "name": "Besa Ewaste Recycling Center",
    "type": "ewaste",
    "state": "Maharashtra",
    "district": "Nagpur",
    "city": "Nagpur",
    "pincode": "440037",
    "lat": 21.085311,
    "lng": 79.174672,
    "address": "Besa, Nagpur, Maharashtra, India",
    "phone": "+91 9391191889",
    "rating": 4.9,
    "verified": false
  },
  {
    "id": 239,
    "name": "Mahal Metal Recycling Center",
    "type": "metal",
    "state": "Maharashtra",
    "district": "Nagpur",
    "city": "Nagpur",
    "pincode": "440002",
    "lat": 21.175941,
    "lng": 79.194785,
    "address": "Mahal, Nagpur, Maharashtra, India",
    "phone": "+91 9219583585",
    "rating": 4.9,
    "verified": true
  },
  {
    "id": 240,
    "name": "Sadar Glass Recycling Center",
    "type": "glass",
    "state": "Maharashtra",
    "district": "Nagpur",
    "city": "Nagpur",
    "pincode": "440001",
    "lat": 21.183498,
    "lng": 79.174097,
    "address": "Sadar, Nagpur, Maharashtra, India",
    "phone": "+91 9482381835",
    "rating": 4.0,
    "verified": true
  },
  {
    "id": 241,
    "name": "Dharampeth Glass Recycling Center",
    "type": "glass",
    "state": "Maharashtra",
    "district": "Nagpur",
    "city": "Nagpur",
    "pincode": "440010",
    "lat": 21.197117,
    "lng": 79.117331,
    "address": "Dharampeth, Nagpur, Maharashtra, India",
    "phone": "+91 9350262396",
    "rating": 4.9,
    "verified": true
  },
  {
    "id": 242,
    "name": "Wardhaman Nagar Metal Recycling Center",
    "type": "metal",
    "state": "Maharashtra",
    "district": "Nagpur",
    "city": "Nagpur",
    "pincode": "440008",
    "lat": 21.064735,
    "lng": 79.021878,
    "address": "Wardhaman Nagar, Nagpur, Maharashtra, India",
    "phone": "+91 9944614579",
    "rating": 4.7,
    "verified": true
  },
  {
    "id": 243,
    "name": "Manewada Glass Recycling Center",
    "type": "glass",
    "state": "Maharashtra",
    "district": "Nagpur",
    "city": "Nagpur",
    "pincode": "440024",
    "lat": 21.233157,
    "lng": 79.132314,
    "address": "Manewada, Nagpur, Maharashtra, India",
    "phone": "+91 9334011285",
    "rating": 3.7,
    "verified": false
  },
  {
    "id": 244,
    "name": "Itwari Paper Recycling Center",
    "type": "paper",
    "state": "Maharashtra",
    "district": "Nagpur",
    "city": "Nagpur",
    "pincode": "440002",
    "lat": 21.235027,
    "lng": 79.087308,
    "address": "Itwari, Nagpur, Maharashtra, India",
    "phone": "+91 9505286168",
    "rating": 4.0,
    "verified": false
  },
  {
    "id": 245,
    "name": "Nandanvan Glass Recycling Center",
    "type": "glass",
    "state": "Maharashtra",
    "district": "Nagpur",
    "city": "Nagpur",
    "pincode": "440009",
    "lat": 21.143924,
    "lng": 79.109831,
    "address": "Nandanvan, Nagpur, Maharashtra, India",
    "phone": "+91 9535178193",
    "rating": 4.8,
    "verified": true
  },
  {
    "id": 246,
    "name": "Sadar Ewaste Recycling Center",
    "type": "ewaste",
    "state": "Maharashtra",
    "district": "Nagpur",
    "city": "Nagpur",
    "pincode": "440001",
    "lat": 21.132507,
    "lng": 79.054441,
    "address": "Sadar, Nagpur, Maharashtra, India",
    "phone": "+91 9787203224",
    "rating": 3.8,
    "verified": true
  },
  {
    "id": 247,
    "name": "Mankapur Ewaste Recycling Center",
    "type": "ewaste",
    "state": "Maharashtra",
    "district": "Nagpur",
    "city": "Nagpur",
    "pincode": "440030",
    "lat": 21.137618,
    "lng": 79.119473,
    "address": "Mankapur, Nagpur, Maharashtra, India",
    "phone": "+91 9499831149",
    "rating": 4.5,
    "verified": true
  },
  {
    "id": 248,
    "name": "Pratap Nagar Paper Recycling Center",
    "type": "paper",
    "state": "Maharashtra",
    "district": "Nagpur",
    "city": "Nagpur",
    "pincode": "440022",
    "lat": 21.232452,
    "lng": 78.98599,
    "address": "Pratap Nagar, Nagpur, Maharashtra, India",
    "phone": "+91 9168648884",
    "rating": 4.7,
    "verified": true
  },
  {
    "id": 249,
    "name": "Mahal Metal Recycling Center",
    "type": "metal",
    "state": "Maharashtra",
    "district": "Nagpur",
    "city": "Nagpur",
    "pincode": "440002",
    "lat": 21.078466,
    "lng": 79.11847,
    "address": "Mahal, Nagpur, Maharashtra, India",
    "phone": "+91 9302464562",
    "rating": 3.7,
    "verified": false
  },
  {
    "id": 250,
    "name": "Kamptee Road Paper Recycling Center",
    "type": "paper",
    "state": "Maharashtra",
    "district": "Nagpur",
    "city": "Nagpur",
    "pincode": "440026",
    "lat": 21.226919,
    "lng": 79.106737,
    "address": "Kamptee Road, Nagpur, Maharashtra, India",
    "phone": "+91 9886525834",
    "rating": 3.7,
    "verified": false
  },
  {
    "id": 251,
    "name": "Mankapur Glass Recycling Center",
    "type": "glass",
    "state": "Maharashtra",
    "district": "Nagpur",
    "city": "Nagpur",
    "pincode": "440030",
    "lat": 21.143831,
    "lng": 78.992143,
    "address": "Mankapur, Nagpur, Maharashtra, India",
    "phone": "+91 9832706538",
    "rating": 3.9,
    "verified": true
  },
  {
    "id": 252,
    "name": "Besa Plastic Recycling Center",
    "type": "plastic",
    "state": "Maharashtra",
    "district": "Nagpur",
    "city": "Nagpur",
    "pincode": "440037",
    "lat": 21.181146,
    "lng": 79.016736,
    "address": "Besa, Nagpur, Maharashtra, India",
    "phone": "+91 9116036982",
    "rating": 3.9,
    "verified": true
  },
  {
    "id": 253,
    "name": "Itwari Glass Recycling Center",
    "type": "glass",
    "state": "Maharashtra",
    "district": "Nagpur",
    "city": "Nagpur",
    "pincode": "440002",
    "lat": 21.078198,
    "lng": 79.04338,
    "address": "Itwari, Nagpur, Maharashtra, India",
    "phone": "+91 9880529105",
    "rating": 3.5,
    "verified": false
  },
  {
    "id": 254,
    "name": "Koradi Road Scrap Recycling Center",
    "type": "scrap",
    "state": "Maharashtra",
    "district": "Nagpur",
    "city": "Nagpur",
    "pincode": "440030",
    "lat": 21.104235,
    "lng": 79.197706,
    "address": "Koradi Road, Nagpur, Maharashtra, India",
    "phone": "+91 9471000276",
    "rating": 3.6,
    "verified": true
  },
  {
    "id": 255,
    "name": "Koradi Road Glass Recycling Center",
    "type": "glass",
    "state": "Maharashtra",
    "district": "Nagpur",
    "city": "Nagpur",
    "pincode": "440030",
    "lat": 21.174345,
    "lng": 78.99726,
    "address": "Koradi Road, Nagpur, Maharashtra, India",
    "phone": "+91 9612567332",
    "rating": 4.0,
    "verified": true
  },
  {
    "id": 256,
    "name": "Nandanvan Metal Recycling Center",
    "type": "metal",
    "state": "Maharashtra",
    "district": "Nagpur",
    "city": "Nagpur",
    "pincode": "440009",
    "lat": 21.129761,
    "lng": 78.966776,
    "address": "Nandanvan, Nagpur, Maharashtra, India",
    "phone": "+91 9337497184",
    "rating": 3.6,
    "verified": true
  },
  {
    "id": 257,
    "name": "Nandanvan Glass Recycling Center",
    "type": "glass",
    "state": "Maharashtra",
    "district": "Nagpur",
    "city": "Nagpur",
    "pincode": "440009",
    "lat": 21.070564,
    "lng": 79.11527,
    "address": "Nandanvan, Nagpur, Maharashtra, India",
    "phone": "+91 9791819068",
    "rating": 4.9,
    "verified": true
  },
  {
    "id": 258,
    "name": "Itwari Paper Recycling Center",
    "type": "paper",
    "state": "Maharashtra",
    "district": "Nagpur",
    "city": "Nagpur",
    "pincode": "440002",
    "lat": 21.148108,
    "lng": 79.181468,
    "address": "Itwari, Nagpur, Maharashtra, India",
    "phone": "+91 9872825667",
    "rating": 4.1,
    "verified": true
  },
  {
    "id": 259,
    "name": "Sitabuldi Plastic Recycling Center",
    "type": "plastic",
    "state": "Maharashtra",
    "district": "Nagpur",
    "city": "Nagpur",
    "pincode": "440012",
    "lat": 21.224793,
    "lng": 78.966609,
    "address": "Sitabuldi, Nagpur, Maharashtra, India",
    "phone": "+91 9375595998",
    "rating": 3.8,
    "verified": false
  },
  {
    "id": 260,
    "name": "Itwari Ewaste Recycling Center",
    "type": "ewaste",
    "state": "Maharashtra",
    "district": "Nagpur",
    "city": "Nagpur",
    "pincode": "440002",
    "lat": 21.238988,
    "lng": 79.057374,
    "address": "Itwari, Nagpur, Maharashtra, India",
    "phone": "+91 9365013424",
    "rating": 4.8,
    "verified": true
  },
  {
    "id": 261,
    "name": "Sadar Metal Recycling Center",
    "type": "metal",
    "state": "Maharashtra",
    "district": "Nagpur",
    "city": "Nagpur",
    "pincode": "440001",
    "lat": 21.19584,
    "lng": 79.027649,
    "address": "Sadar, Nagpur, Maharashtra, India",
    "phone": "+91 9366112840",
    "rating": 4.4,
    "verified": true
  },
  {
    "id": 262,
    "name": "Manewada Glass Recycling Center",
    "type": "glass",
    "state": "Maharashtra",
    "district": "Nagpur",
    "city": "Nagpur",
    "pincode": "440024",
    "lat": 21.075569,
    "lng": 79.184749,
    "address": "Manewada, Nagpur, Maharashtra, India",
    "phone": "+91 9798796845",
    "rating": 3.7,
    "verified": true
  },
  {
    "id": 263,
    "name": "Pratap Nagar Plastic Recycling Center",
    "type": "plastic",
    "state": "Maharashtra",
    "district": "Nagpur",
    "city": "Nagpur",
    "pincode": "440022",
    "lat": 21.055917,
    "lng": 79.083091,
    "address": "Pratap Nagar, Nagpur, Maharashtra, India",
    "phone": "+91 9175081700",
    "rating": 4.9,
    "verified": false
  },
  {
    "id": 264,
    "name": "Mankapur Metal Recycling Center",
    "type": "metal",
    "state": "Maharashtra",
    "district": "Nagpur",
    "city": "Nagpur",
    "pincode": "440030",
    "lat": 21.129704,
    "lng": 79.042324,
    "address": "Mankapur, Nagpur, Maharashtra, India",
    "phone": "+91 9518613392",
    "rating": 4.0,
    "verified": false
  },
  {
    "id": 265,
    "name": "Jaripatka Paper Recycling Center",
    "type": "paper",
    "state": "Maharashtra",
    "district": "Nagpur",
    "city": "Nagpur",
    "pincode": "440014",
    "lat": 21.075802,
    "lng": 79.045878,
    "address": "Jaripatka, Nagpur, Maharashtra, India",
    "phone": "+91 9446544135",
    "rating": 3.8,
    "verified": false
  },
  {
    "id": 266,
    "name": "Hingna Scrap Recycling Center",
    "type": "scrap",
    "state": "Maharashtra",
    "district": "Nagpur",
    "city": "Nagpur",
    "pincode": "440016",
    "lat": 21.223542,
    "lng": 79.076291,
    "address": "Hingna, Nagpur, Maharashtra, India",
    "phone": "+91 9177778578",
    "rating": 4.6,
    "verified": true
  },
  {
    "id": 267,
    "name": "Besa Plastic Recycling Center",
    "type": "plastic",
    "state": "Maharashtra",
    "district": "Nagpur",
    "city": "Nagpur",
    "pincode": "440037",
    "lat": 21.214658,
    "lng": 79.13962,
    "address": "Besa, Nagpur, Maharashtra, India",
    "phone": "+91 9339468397",
    "rating": 3.7,
    "verified": true
  },
  {
    "id": 268,
    "name": "Pratap Nagar Metal Recycling Center",
    "type": "metal",
    "state": "Maharashtra",
    "district": "Nagpur",
    "city": "Nagpur",
    "pincode": "440022",
    "lat": 21.068411,
    "lng": 79.096721,
    "address": "Pratap Nagar, Nagpur, Maharashtra, India",
    "phone": "+91 9812167998",
    "rating": 4.3,
    "verified": false
  },
  {
    "id": 269,
    "name": "Sitabuldi Glass Recycling Center",
    "type": "glass",
    "state": "Maharashtra",
    "district": "Nagpur",
    "city": "Nagpur",
    "pincode": "440012",
    "lat": 21.06531,
    "lng": 78.999628,
    "address": "Sitabuldi, Nagpur, Maharashtra, India",
    "phone": "+91 9807102794",
    "rating": 4.4,
    "verified": true
  },
  {
    "id": 270,
    "name": "Koradi Road Metal Recycling Center",
    "type": "metal",
    "state": "Maharashtra",
    "district": "Nagpur",
    "city": "Nagpur",
    "pincode": "440030",
    "lat": 21.122597,
    "lng": 79.066253,
    "address": "Koradi Road, Nagpur, Maharashtra, India",
    "phone": "+91 9901416770",
    "rating": 4.9,
    "verified": false
  },
  {
    "id": 271,
    "name": "Besa Metal Recycling Center",
    "type": "metal",
    "state": "Maharashtra",
    "district": "Nagpur",
    "city": "Nagpur",
    "pincode": "440037",
    "lat": 21.248086,
    "lng": 79.023115,
    "address": "Besa, Nagpur, Maharashtra, India",
    "phone": "+91 9754998420",
    "rating": 3.8,
    "verified": true
  },
  {
    "id": 272,
    "name": "Mankapur Metal Recycling Center",
    "type": "metal",
    "state": "Maharashtra",
    "district": "Nagpur",
    "city": "Nagpur",
    "pincode": "440030",
    "lat": 21.084746,
    "lng": 78.96478,
    "address": "Mankapur, Nagpur, Maharashtra, India",
    "phone": "+91 9450753988",
    "rating": 3.8,
    "verified": true
  },
  {
    "id": 273,
    "name": "Mankapur Scrap Recycling Center",
    "type": "scrap",
    "state": "Maharashtra",
    "district": "Nagpur",
    "city": "Nagpur",
    "pincode": "440030",
    "lat": 21.076999,
    "lng": 78.964608,
    "address": "Mankapur, Nagpur, Maharashtra, India",
    "phone": "+91 9378911712",
    "rating": 3.6,
    "verified": true
  },
  {
    "id": 274,
    "name": "Mahal Plastic Recycling Center",
    "type": "plastic",
    "state": "Maharashtra",
    "district": "Nagpur",
    "city": "Nagpur",
    "pincode": "440002",
    "lat": 21.13844,
    "lng": 79.065502,
    "address": "Mahal, Nagpur, Maharashtra, India",
    "phone": "+91 9330628346",
    "rating": 3.9,
    "verified": true
  },
  {
    "id": 275,
    "name": "Manewada Plastic Recycling Center",
    "type": "plastic",
    "state": "Maharashtra",
    "district": "Nagpur",
    "city": "Nagpur",
    "pincode": "440024",
    "lat": 21.241652,
    "lng": 79.16304,
    "address": "Manewada, Nagpur, Maharashtra, India",
    "phone": "+91 9584411457",
    "rating": 4.4,
    "verified": true
  },
  {
    "id": 276,
    "name": "Pratap Nagar Paper Recycling Center",
    "type": "paper",
    "state": "Maharashtra",
    "district": "Nagpur",
    "city": "Nagpur",
    "pincode": "440022",
    "lat": 21.192174,
    "lng": 78.96711,
    "address": "Pratap Nagar, Nagpur, Maharashtra, India",
    "phone": "+91 9716310221",
    "rating": 4.6,
    "verified": true
  },
  {
    "id": 277,
    "name": "Koradi Road Metal Recycling Center",
    "type": "metal",
    "state": "Maharashtra",
    "district": "Nagpur",
    "city": "Nagpur",
    "pincode": "440030",
    "lat": 21.161696,
    "lng": 79.15948,
    "address": "Koradi Road, Nagpur, Maharashtra, India",
    "phone": "+91 9407287416",
    "rating": 4.0,
    "verified": false
  },
  {
    "id": 278,
    "name": "Trimurti Nagar Plastic Recycling Center",
    "type": "plastic",
    "state": "Maharashtra",
    "district": "Nagpur",
    "city": "Nagpur",
    "pincode": "440022",
    "lat": 21.203884,
    "lng": 79.052241,
    "address": "Trimurti Nagar, Nagpur, Maharashtra, India",
    "phone": "+91 9564679005",
    "rating": 4.5,
    "verified": true
  },
  {
    "id": 279,
    "name": "Sadar Glass Recycling Center",
    "type": "glass",
    "state": "Maharashtra",
    "district": "Nagpur",
    "city": "Nagpur",
    "pincode": "440001",
    "lat": 21.160216,
    "lng": 79.082446,
    "address": "Sadar, Nagpur, Maharashtra, India",
    "phone": "+91 9520047338",
    "rating": 4.0,
    "verified": true
  },
  {
    "id": 280,
    "name": "Itwari Plastic Recycling Center",
    "type": "plastic",
    "state": "Maharashtra",
    "district": "Nagpur",
    "city": "Nagpur",
    "pincode": "440002",
    "lat": 21.204798,
    "lng": 79.054259,
    "address": "Itwari, Nagpur, Maharashtra, India",
    "phone": "+91 9203233826",
    "rating": 3.8,
    "verified": false
  },
  {
    "id": 281,
    "name": "Mahal Scrap Recycling Center",
    "type": "scrap",
    "state": "Maharashtra",
    "district": "Nagpur",
    "city": "Nagpur",
    "pincode": "440002",
    "lat": 21.072106,
    "lng": 79.168436,
    "address": "Mahal, Nagpur, Maharashtra, India",
    "phone": "+91 9928279756",
    "rating": 4.0,
    "verified": true
  },
  {
    "id": 282,
    "name": "Hingna Scrap Recycling Center",
    "type": "scrap",
    "state": "Maharashtra",
    "district": "Nagpur",
    "city": "Nagpur",
    "pincode": "440016",
    "lat": 21.205613,
    "lng": 79.046069,
    "address": "Hingna, Nagpur, Maharashtra, India",
    "phone": "+91 9152730416",
    "rating": 3.6,
    "verified": true
  },
  {
    "id": 283,
    "name": "Besa Scrap Recycling Center",
    "type": "scrap",
    "state": "Maharashtra",
    "district": "Nagpur",
    "city": "Nagpur",
    "pincode": "440037",
    "lat": 21.146172,
    "lng": 79.021311,
    "address": "Besa, Nagpur, Maharashtra, India",
    "phone": "+91 9101643058",
    "rating": 3.6,
    "verified": false
  },
  {
    "id": 284,
    "name": "Besa Metal Recycling Center",
    "type": "metal",
    "state": "Maharashtra",
    "district": "Nagpur",
    "city": "Nagpur",
    "pincode": "440037",
    "lat": 21.176096,
    "lng": 79.057353,
    "address": "Besa, Nagpur, Maharashtra, India",
    "phone": "+91 9635890377",
    "rating": 4.1,
    "verified": true
  },
  {
    "id": 285,
    "name": "Wardhaman Nagar Metal Recycling Center",
    "type": "metal",
    "state": "Maharashtra",
    "district": "Nagpur",
    "city": "Nagpur",
    "pincode": "440008",
    "lat": 21.243015,
    "lng": 78.978326,
    "address": "Wardhaman Nagar, Nagpur, Maharashtra, India",
    "phone": "+91 9434327137",
    "rating": 3.9,
    "verified": true
  },
  {
    "id": 286,
    "name": "Kamptee Road Ewaste Recycling Center",
    "type": "ewaste",
    "state": "Maharashtra",
    "district": "Nagpur",
    "city": "Nagpur",
    "pincode": "440026",
    "lat": 21.185448,
    "lng": 79.115878,
    "address": "Kamptee Road, Nagpur, Maharashtra, India",
    "phone": "+91 9700797688",
    "rating": 3.7,
    "verified": true
  },
  {
    "id": 287,
    "name": "Mahal Metal Recycling Center",
    "type": "metal",
    "state": "Maharashtra",
    "district": "Nagpur",
    "city": "Nagpur",
    "pincode": "440002",
    "lat": 21.235465,
    "lng": 79.040648,
    "address": "Mahal, Nagpur, Maharashtra, India",
    "phone": "+91 9244395232",
    "rating": 4.6,
    "verified": true
  },
  {
    "id": 288,
    "name": "Koradi Road Metal Recycling Center",
    "type": "metal",
    "state": "Maharashtra",
    "district": "Nagpur",
    "city": "Nagpur",
    "pincode": "440030",
    "lat": 21.227801,
    "lng": 78.963755,
    "address": "Koradi Road, Nagpur, Maharashtra, India",
    "phone": "+91 9531584976",
    "rating": 4.4,
    "verified": false
  },
  {
    "id": 289,
    "name": "Kamptee Road Plastic Recycling Center",
    "type": "plastic",
    "state": "Maharashtra",
    "district": "Nagpur",
    "city": "Nagpur",
    "pincode": "440026",
    "lat": 21.169215,
    "lng": 78.987368,
    "address": "Kamptee Road, Nagpur, Maharashtra, India",
    "phone": "+91 9682533551",
    "rating": 3.9,
    "verified": true
  },
  {
    "id": 290,
    "name": "Nandanvan Plastic Recycling Center",
    "type": "plastic",
    "state": "Maharashtra",
    "district": "Nagpur",
    "city": "Nagpur",
    "pincode": "440009",
    "lat": 21.105743,
    "lng": 79.015306,
    "address": "Nandanvan, Nagpur, Maharashtra, India",
    "phone": "+91 9613411980",
    "rating": 5.0,
    "verified": true
  },
  {
    "id": 291,
    "name": "Nandanvan Scrap Recycling Center",
    "type": "scrap",
    "state": "Maharashtra",
    "district": "Nagpur",
    "city": "Nagpur",
    "pincode": "440009",
    "lat": 21.096386,
    "lng": 79.075669,
    "address": "Nandanvan, Nagpur, Maharashtra, India",
    "phone": "+91 9201428673",
    "rating": 4.0,
    "verified": false
  },
  {
    "id": 292,
    "name": "Trimurti Nagar Paper Recycling Center",
    "type": "paper",
    "state": "Maharashtra",
    "district": "Nagpur",
    "city": "Nagpur",
    "pincode": "440022",
    "lat": 21.133924,
    "lng": 79.179906,
    "address": "Trimurti Nagar, Nagpur, Maharashtra, India",
    "phone": "+91 9337843892",
    "rating": 4.5,
    "verified": false
  },
  {
    "id": 293,
    "name": "Mankapur Scrap Recycling Center",
    "type": "scrap",
    "state": "Maharashtra",
    "district": "Nagpur",
    "city": "Nagpur",
    "pincode": "440030",
    "lat": 21.068282,
    "lng": 79.192651,
    "address": "Mankapur, Nagpur, Maharashtra, India",
    "phone": "+91 9747995233",
    "rating": 4.8,
    "verified": false
  },
  {
    "id": 294,
    "name": "Besa Scrap Recycling Center",
    "type": "scrap",
    "state": "Maharashtra",
    "district": "Nagpur",
    "city": "Nagpur",
    "pincode": "440037",
    "lat": 21.139853,
    "lng": 79.089787,
    "address": "Besa, Nagpur, Maharashtra, India",
    "phone": "+91 9999192538",
    "rating": 4.9,
    "verified": false
  },
  {
    "id": 295,
    "name": "Sitabuldi Glass Recycling Center",
    "type": "glass",
    "state": "Maharashtra",
    "district": "Nagpur",
    "city": "Nagpur",
    "pincode": "440012",
    "lat": 21.104935,
    "lng": 78.967426,
    "address": "Sitabuldi, Nagpur, Maharashtra, India",
    "phone": "+91 9991291354",
    "rating": 3.8,
    "verified": false
  },
  {
    "id": 296,
    "name": "Besa Metal Recycling Center",
    "type": "metal",
    "state": "Maharashtra",
    "district": "Nagpur",
    "city": "Nagpur",
    "pincode": "440037",
    "lat": 21.189849,
    "lng": 79.153139,
    "address": "Besa, Nagpur, Maharashtra, India",
    "phone": "+91 9900826555",
    "rating": 4.9,
    "verified": false
  },
  {
    "id": 297,
    "name": "Pratap Nagar Metal Recycling Center",
    "type": "metal",
    "state": "Maharashtra",
    "district": "Nagpur",
    "city": "Nagpur",
    "pincode": "440022",
    "lat": 21.138792,
    "lng": 79.054619,
    "address": "Pratap Nagar, Nagpur, Maharashtra, India",
    "phone": "+91 9143068156",
    "rating": 3.7,
    "verified": false
  },
  {
    "id": 298,
    "name": "Trimurti Nagar Scrap Recycling Center",
    "type": "scrap",
    "state": "Maharashtra",
    "district": "Nagpur",
    "city": "Nagpur",
    "pincode": "440022",
    "lat": 21.088646,
    "lng": 79.015242,
    "address": "Trimurti Nagar, Nagpur, Maharashtra, India",
    "phone": "+91 9614498577",
    "rating": 4.1,
    "verified": true
  },
  {
    "id": 299,
    "name": "Mahal Scrap Recycling Center",
    "type": "scrap",
    "state": "Maharashtra",
    "district": "Nagpur",
    "city": "Nagpur",
    "pincode": "440002",
    "lat": 21.23259,
    "lng": 79.135745,
    "address": "Mahal, Nagpur, Maharashtra, India",
    "phone": "+91 9550889959",
    "rating": 4.7,
    "verified": false
  },
  {
    "id": 300,
    "name": "Sitabuldi Scrap Recycling Center",
    "type": "scrap",
    "state": "Maharashtra",
    "district": "Nagpur",
    "city": "Nagpur",
    "pincode": "440012",
    "lat": 21.2299,
    "lng": 79.19094,
    "address": "Sitabuldi, Nagpur, Maharashtra, India",
    "phone": "+91 9609851704",
    "rating": 4.9,
    "verified": false
  },
  {
    "id": 301,
    "name": "Wardhaman Nagar Plastic Recycling Center",
    "type": "plastic",
    "state": "Maharashtra",
    "district": "Nagpur",
    "city": "Nagpur",
    "pincode": "440008",
    "lat": 21.211649,
    "lng": 78.965254,
    "address": "Wardhaman Nagar, Nagpur, Maharashtra, India",
    "phone": "+91 9377648665",
    "rating": 5.0,
    "verified": false
  },
  {
    "id": 302,
    "name": "Kamptee Road Paper Recycling Center",
    "type": "paper",
    "state": "Maharashtra",
    "district": "Nagpur",
    "city": "Nagpur",
    "pincode": "440026",
    "lat": 21.20125,
    "lng": 78.958334,
    "address": "Kamptee Road, Nagpur, Maharashtra, India",
    "phone": "+91 9445672070",
    "rating": 4.7,
    "verified": false
  },
  {
    "id": 303,
    "name": "Nandanvan Plastic Recycling Center",
    "type": "plastic",
    "state": "Maharashtra",
    "district": "Nagpur",
    "city": "Nagpur",
    "pincode": "440009",
    "lat": 21.236307,
    "lng": 79.078011,
    "address": "Nandanvan, Nagpur, Maharashtra, India",
    "phone": "+91 9359790879",
    "rating": 4.2,
    "verified": true
  },
  {
    "id": 304,
    "name": "Wardhaman Nagar Glass Recycling Center",
    "type": "glass",
    "state": "Maharashtra",
    "district": "Nagpur",
    "city": "Nagpur",
    "pincode": "440008",
    "lat": 21.077199,
    "lng": 79.010853,
    "address": "Wardhaman Nagar, Nagpur, Maharashtra, India",
    "phone": "+91 9341275779",
    "rating": 3.7,
    "verified": false
  },
  {
    "id": 305,
    "name": "Sadar Scrap Recycling Center",
    "type": "scrap",
    "state": "Maharashtra",
    "district": "Nagpur",
    "city": "Nagpur",
    "pincode": "440001",
    "lat": 21.148581,
    "lng": 79.091756,
    "address": "Sadar, Nagpur, Maharashtra, India",
    "phone": "+91 9194608720",
    "rating": 4.2,
    "verified": true
  },
  {
    "id": 306,
    "name": "Manewada Paper Recycling Center",
    "type": "paper",
    "state": "Maharashtra",
    "district": "Nagpur",
    "city": "Nagpur",
    "pincode": "440024",
    "lat": 21.092086,
    "lng": 79.022348,
    "address": "Manewada, Nagpur, Maharashtra, India",
    "phone": "+91 9644615705",
    "rating": 4.6,
    "verified": false
  },
  {
    "id": 307,
    "name": "Sitabuldi Paper Recycling Center",
    "type": "paper",
    "state": "Maharashtra",
    "district": "Nagpur",
    "city": "Nagpur",
    "pincode": "440012",
    "lat": 21.238149,
    "lng": 79.018522,
    "address": "Sitabuldi, Nagpur, Maharashtra, India",
    "phone": "+91 9426477427",
    "rating": 3.8,
    "verified": true
  },
  {
    "id": 308,
    "name": "Mankapur Metal Recycling Center",
    "type": "metal",
    "state": "Maharashtra",
    "district": "Nagpur",
    "city": "Nagpur",
    "pincode": "440030",
    "lat": 21.236911,
    "lng": 79.098592,
    "address": "Mankapur, Nagpur, Maharashtra, India",
    "phone": "+91 9771321872",
    "rating": 4.1,
    "verified": true
  },
  {
    "id": 309,
    "name": "Sitabuldi Ewaste Recycling Center",
    "type": "ewaste",
    "state": "Maharashtra",
    "district": "Nagpur",
    "city": "Nagpur",
    "pincode": "440012",
    "lat": 21.147685,
    "lng": 79.054083,
    "address": "Sitabuldi, Nagpur, Maharashtra, India",
    "phone": "+91 9670910716",
    "rating": 3.7,
    "verified": false
  },
  {
    "id": 310,
    "name": "Sadar Glass Recycling Center",
    "type": "glass",
    "state": "Maharashtra",
    "district": "Nagpur",
    "city": "Nagpur",
    "pincode": "440001",
    "lat": 21.239468,
    "lng": 79.032101,
    "address": "Sadar, Nagpur, Maharashtra, India",
    "phone": "+91 9645223001",
    "rating": 3.6,
    "verified": true
  },
  {
    "id": 311,
    "name": "Sadar Plastic Recycling Center",
    "type": "plastic",
    "state": "Maharashtra",
    "district": "Nagpur",
    "city": "Nagpur",
    "pincode": "440001",
    "lat": 21.155626,
    "lng": 79.155773,
    "address": "Sadar, Nagpur, Maharashtra, India",
    "phone": "+91 9962603702",
    "rating": 3.7,
    "verified": false
  },
  {
    "id": 312,
    "name": "Hingna Metal Recycling Center",
    "type": "metal",
    "state": "Maharashtra",
    "district": "Nagpur",
    "city": "Nagpur",
    "pincode": "440016",
    "lat": 21.108798,
    "lng": 79.003894,
    "address": "Hingna, Nagpur, Maharashtra, India",
    "phone": "+91 9476295515",
    "rating": 4.9,
    "verified": true
  },
  {
    "id": 313,
    "name": "Trimurti Nagar Paper Recycling Center",
    "type": "paper",
    "state": "Maharashtra",
    "district": "Nagpur",
    "city": "Nagpur",
    "pincode": "440022",
    "lat": 21.098206,
    "lng": 79.005806,
    "address": "Trimurti Nagar, Nagpur, Maharashtra, India",
    "phone": "+91 9980942155",
    "rating": 4.1,
    "verified": true
  },
  {
    "id": 314,
    "name": "Sadar Paper Recycling Center",
    "type": "paper",
    "state": "Maharashtra",
    "district": "Nagpur",
    "city": "Nagpur",
    "pincode": "440001",
    "lat": 21.155536,
    "lng": 79.007694,
    "address": "Sadar, Nagpur, Maharashtra, India",
    "phone": "+91 9796705495",
    "rating": 4.5,
    "verified": false
  },
  {
    "id": 315,
    "name": "Hingna Glass Recycling Center",
    "type": "glass",
    "state": "Maharashtra",
    "district": "Nagpur",
    "city": "Nagpur",
    "pincode": "440016",
    "lat": 21.153781,
    "lng": 79.132096,
    "address": "Hingna, Nagpur, Maharashtra, India",
    "phone": "+91 9488121705",
    "rating": 4.0,
    "verified": false
  },
  {
    "id": 316,
    "name": "Koradi Road Metal Recycling Center",
    "type": "metal",
    "state": "Maharashtra",
    "district": "Nagpur",
    "city": "Nagpur",
    "pincode": "440030",
    "lat": 21.224556,
    "lng": 79.183908,
    "address": "Koradi Road, Nagpur, Maharashtra, India",
    "phone": "+91 9884983977",
    "rating": 3.9,
    "verified": false
  },
  {
    "id": 317,
    "name": "Trimurti Nagar Metal Recycling Center",
    "type": "metal",
    "state": "Maharashtra",
    "district": "Nagpur",
    "city": "Nagpur",
    "pincode": "440022",
    "lat": 21.120296,
    "lng": 79.020771,
    "address": "Trimurti Nagar, Nagpur, Maharashtra, India",
    "phone": "+91 9670593476",
    "rating": 3.7,
    "verified": false
  },
  {
    "id": 318,
    "name": "Sitabuldi Glass Recycling Center",
    "type": "glass",
    "state": "Maharashtra",
    "district": "Nagpur",
    "city": "Nagpur",
    "pincode": "440012",
    "lat": 21.247083,
    "lng": 79.030051,
    "address": "Sitabuldi, Nagpur, Maharashtra, India",
    "phone": "+91 9989504595",
    "rating": 4.8,
    "verified": false
  },
  {
    "id": 319,
    "name": "Kamptee Road Metal Recycling Center",
    "type": "metal",
    "state": "Maharashtra",
    "district": "Nagpur",
    "city": "Nagpur",
    "pincode": "440026",
    "lat": 21.180896,
    "lng": 79.000803,
    "address": "Kamptee Road, Nagpur, Maharashtra, India",
    "phone": "+91 9542196280",
    "rating": 4.5,
    "verified": false
  },
  {
    "id": 320,
    "name": "Besa Scrap Recycling Center",
    "type": "scrap",
    "state": "Maharashtra",
    "district": "Nagpur",
    "city": "Nagpur",
    "pincode": "440037",
    "lat": 21.178025,
    "lng": 78.964547,
    "address": "Besa, Nagpur, Maharashtra, India",
    "phone": "+91 9359819608",
    "rating": 3.7,
    "verified": true
  },
  {
    "id": 321,
    "name": "Mankapur Glass Recycling Center",
    "type": "glass",
    "state": "Maharashtra",
    "district": "Nagpur",
    "city": "Nagpur",
    "pincode": "440030",
    "lat": 21.106426,
    "lng": 79.167379,
    "address": "Mankapur, Nagpur, Maharashtra, India",
    "phone": "+91 9832119462",
    "rating": 4.9,
    "verified": false
  },
  {
    "id": 322,
    "name": "Besa Paper Recycling Center",
    "type": "paper",
    "state": "Maharashtra",
    "district": "Nagpur",
    "city": "Nagpur",
    "pincode": "440037",
    "lat": 21.240588,
    "lng": 79.188268,
    "address": "Besa, Nagpur, Maharashtra, India",
    "phone": "+91 9517166312",
    "rating": 4.5,
    "verified": false
  },
  {
    "id": 323,
    "name": "Besa Ewaste Recycling Center",
    "type": "ewaste",
    "state": "Maharashtra",
    "district": "Nagpur",
    "city": "Nagpur",
    "pincode": "440037",
    "lat": 21.059706,
    "lng": 79.025183,
    "address": "Besa, Nagpur, Maharashtra, India",
    "phone": "+91 9756716395",
    "rating": 3.9,
    "verified": false
  },
  {
    "id": 324,
    "name": "Itwari Ewaste Recycling Center",
    "type": "ewaste",
    "state": "Maharashtra",
    "district": "Nagpur",
    "city": "Nagpur",
    "pincode": "440002",
    "lat": 21.246912,
    "lng": 79.089236,
    "address": "Itwari, Nagpur, Maharashtra, India",
    "phone": "+91 9522666753",
    "rating": 4.6,
    "verified": false
  },
  {
    "id": 325,
    "name": "Mahal Paper Recycling Center",
    "type": "paper",
    "state": "Maharashtra",
    "district": "Nagpur",
    "city": "Nagpur",
    "pincode": "440002",
    "lat": 21.099025,
    "lng": 79.185428,
    "address": "Mahal, Nagpur, Maharashtra, India",
    "phone": "+91 9502059280",
    "rating": 3.9,
    "verified": true
  },
  {
    "id": 326,
    "name": "Nandanvan Paper Recycling Center",
    "type": "paper",
    "state": "Maharashtra",
    "district": "Nagpur",
    "city": "Nagpur",
    "pincode": "440009",
    "lat": 21.051716,
    "lng": 79.115954,
    "address": "Nandanvan, Nagpur, Maharashtra, India",
    "phone": "+91 9984396677",
    "rating": 4.6,
    "verified": true
  },
  {
    "id": 327,
    "name": "Mahal Scrap Recycling Center",
    "type": "scrap",
    "state": "Maharashtra",
    "district": "Nagpur",
    "city": "Nagpur",
    "pincode": "440002",
    "lat": 21.233444,
    "lng": 79.120888,
    "address": "Mahal, Nagpur, Maharashtra, India",
    "phone": "+91 9110715506",
    "rating": 4.7,
    "verified": true
  },
  {
    "id": 328,
    "name": "Mahal Ewaste Recycling Center",
    "type": "ewaste",
    "state": "Maharashtra",
    "district": "Nagpur",
    "city": "Nagpur",
    "pincode": "440002",
    "lat": 21.194653,
    "lng": 79.176262,
    "address": "Mahal, Nagpur, Maharashtra, India",
    "phone": "+91 9237368901",
    "rating": 3.9,
    "verified": false
  },
  {
    "id": 329,
    "name": "Nandanvan Scrap Recycling Center",
    "type": "scrap",
    "state": "Maharashtra",
    "district": "Nagpur",
    "city": "Nagpur",
    "pincode": "440009",
    "lat": 21.232852,
    "lng": 78.981591,
    "address": "Nandanvan, Nagpur, Maharashtra, India",
    "phone": "+91 9898814418",
    "rating": 4.4,
    "verified": true
  },
  {
    "id": 330,
    "name": "Trimurti Nagar Ewaste Recycling Center",
    "type": "ewaste",
    "state": "Maharashtra",
    "district": "Nagpur",
    "city": "Nagpur",
    "pincode": "440022",
    "lat": 21.189208,
    "lng": 78.953188,
    "address": "Trimurti Nagar, Nagpur, Maharashtra, India",
    "phone": "+91 9868634602",
    "rating": 4.0,
    "verified": false
  },
  {
    "id": 331,
    "name": "Hingna Plastic Recycling Center",
    "type": "plastic",
    "state": "Maharashtra",
    "district": "Nagpur",
    "city": "Nagpur",
    "pincode": "440016",
    "lat": 21.12718,
    "lng": 79.044588,
    "address": "Hingna, Nagpur, Maharashtra, India",
    "phone": "+91 9190371840",
    "rating": 3.7,
    "verified": false
  },
  {
    "id": 332,
    "name": "Trimurti Nagar Plastic Recycling Center",
    "type": "plastic",
    "state": "Maharashtra",
    "district": "Nagpur",
    "city": "Nagpur",
    "pincode": "440022",
    "lat": 21.163437,
    "lng": 79.068098,
    "address": "Trimurti Nagar, Nagpur, Maharashtra, India",
    "phone": "+91 9567812754",
    "rating": 4.9,
    "verified": true
  },
  {
    "id": 333,
    "name": "Itwari Metal Recycling Center",
    "type": "metal",
    "state": "Maharashtra",
    "district": "Nagpur",
    "city": "Nagpur",
    "pincode": "440002",
    "lat": 21.059888,
    "lng": 79.103492,
    "address": "Itwari, Nagpur, Maharashtra, India",
    "phone": "+91 9974551770",
    "rating": 4.8,
    "verified": true
  },
  {
    "id": 334,
    "name": "Manewada Metal Recycling Center",
    "type": "metal",
    "state": "Maharashtra",
    "district": "Nagpur",
    "city": "Nagpur",
    "pincode": "440024",
    "lat": 21.139157,
    "lng": 79.013944,
    "address": "Manewada, Nagpur, Maharashtra, India",
    "phone": "+91 9100883774",
    "rating": 3.7,
    "verified": true
  },
  {
    "id": 335,
    "name": "Pratap Nagar Ewaste Recycling Center",
    "type": "ewaste",
    "state": "Maharashtra",
    "district": "Nagpur",
    "city": "Nagpur",
    "pincode": "440022",
    "lat": 21.181513,
    "lng": 78.972961,
    "address": "Pratap Nagar, Nagpur, Maharashtra, India",
    "phone": "+91 9374341638",
    "rating": 3.5,
    "verified": false
  },
  {
    "id": 336,
    "name": "Mahal Scrap Recycling Center",
    "type": "scrap",
    "state": "Maharashtra",
    "district": "Nagpur",
    "city": "Nagpur",
    "pincode": "440002",
    "lat": 21.163769,
    "lng": 79.088364,
    "address": "Mahal, Nagpur, Maharashtra, India",
    "phone": "+91 9664932298",
    "rating": 4.4,
    "verified": false
  },
  {
    "id": 337,
    "name": "Jaripatka Glass Recycling Center",
    "type": "glass",
    "state": "Maharashtra",
    "district": "Nagpur",
    "city": "Nagpur",
    "pincode": "440014",
    "lat": 21.245389,
    "lng": 79.076706,
    "address": "Jaripatka, Nagpur, Maharashtra, India",
    "phone": "+91 9767381820",
    "rating": 4.9,
    "verified": true
  },
  {
    "id": 338,
    "name": "Koradi Road Metal Recycling Center",
    "type": "metal",
    "state": "Maharashtra",
    "district": "Nagpur",
    "city": "Nagpur",
    "pincode": "440030",
    "lat": 21.1017,
    "lng": 79.060611,
    "address": "Koradi Road, Nagpur, Maharashtra, India",
    "phone": "+91 9891661032",
    "rating": 4.5,
    "verified": false
  },
  {
    "id": 339,
    "name": "Nandanvan Plastic Recycling Center",
    "type": "plastic",
    "state": "Maharashtra",
    "district": "Nagpur",
    "city": "Nagpur",
    "pincode": "440009",
    "lat": 21.145397,
    "lng": 79.073732,
    "address": "Nandanvan, Nagpur, Maharashtra, India",
    "phone": "+91 9611995178",
    "rating": 4.8,
    "verified": false
  },
  {
    "id": 340,
    "name": "Besa Ewaste Recycling Center",
    "type": "ewaste",
    "state": "Maharashtra",
    "district": "Nagpur",
    "city": "Nagpur",
    "pincode": "440037",
    "lat": 21.092399,
    "lng": 79.131947,
    "address": "Besa, Nagpur, Maharashtra, India",
    "phone": "+91 9792902694",
    "rating": 3.8,
    "verified": false
  },
  {
    "id": 341,
    "name": "Mahal Glass Recycling Center",
    "type": "glass",
    "state": "Maharashtra",
    "district": "Nagpur",
    "city": "Nagpur",
    "pincode": "440002",
    "lat": 21.198123,
    "lng": 79.18388,
    "address": "Mahal, Nagpur, Maharashtra, India",
    "phone": "+91 9339697629",
    "rating": 4.0,
    "verified": true
  },
  {
    "id": 342,
    "name": "Trimurti Nagar Scrap Recycling Center",
    "type": "scrap",
    "state": "Maharashtra",
    "district": "Nagpur",
    "city": "Nagpur",
    "pincode": "440022",
    "lat": 21.157785,
    "lng": 78.973087,
    "address": "Trimurti Nagar, Nagpur, Maharashtra, India",
    "phone": "+91 9710928537",
    "rating": 4.6,
    "verified": false
  },
  {
    "id": 343,
    "name": "Sitabuldi Metal Recycling Center",
    "type": "metal",
    "state": "Maharashtra",
    "district": "Nagpur",
    "city": "Nagpur",
    "pincode": "440012",
    "lat": 21.1321,
    "lng": 79.192935,
    "address": "Sitabuldi, Nagpur, Maharashtra, India",
    "phone": "+91 9718962702",
    "rating": 4.1,
    "verified": false
  },
  {
    "id": 344,
    "name": "Manewada Ewaste Recycling Center",
    "type": "ewaste",
    "state": "Maharashtra",
    "district": "Nagpur",
    "city": "Nagpur",
    "pincode": "440024",
    "lat": 21.239179,
    "lng": 79.045797,
    "address": "Manewada, Nagpur, Maharashtra, India",
    "phone": "+91 9744759568",
    "rating": 4.6,
    "verified": true
  },
  {
    "id": 345,
    "name": "Dharampeth Glass Recycling Center",
    "type": "glass",
    "state": "Maharashtra",
    "district": "Nagpur",
    "city": "Nagpur",
    "pincode": "440010",
    "lat": 21.058486,
    "lng": 79.093079,
    "address": "Dharampeth, Nagpur, Maharashtra, India",
    "phone": "+91 9774394100",
    "rating": 3.9,
    "verified": true
  },
  {
    "id": 346,
    "name": "Pratap Nagar Metal Recycling Center",
    "type": "metal",
    "state": "Maharashtra",
    "district": "Nagpur",
    "city": "Nagpur",
    "pincode": "440022",
    "lat": 21.079899,
    "lng": 79.02746,
    "address": "Pratap Nagar, Nagpur, Maharashtra, India",
    "phone": "+91 9671814530",
    "rating": 3.9,
    "verified": true
  },
  {
    "id": 347,
    "name": "Jaripatka Paper Recycling Center",
    "type": "paper",
    "state": "Maharashtra",
    "district": "Nagpur",
    "city": "Nagpur",
    "pincode": "440014",
    "lat": 21.091748,
    "lng": 79.035193,
    "address": "Jaripatka, Nagpur, Maharashtra, India",
    "phone": "+91 9258569308",
    "rating": 4.4,
    "verified": true
  },
  {
    "id": 348,
    "name": "Mahal Ewaste Recycling Center",
    "type": "ewaste",
    "state": "Maharashtra",
    "district": "Nagpur",
    "city": "Nagpur",
    "pincode": "440002",
    "lat": 21.138,
    "lng": 79.118807,
    "address": "Mahal, Nagpur, Maharashtra, India",
    "phone": "+91 9908763834",
    "rating": 4.1,
    "verified": true
  },
  {
    "id": 349,
    "name": "Dharampeth Glass Recycling Center",
    "type": "glass",
    "state": "Maharashtra",
    "district": "Nagpur",
    "city": "Nagpur",
    "pincode": "440010",
    "lat": 21.238504,
    "lng": 79.151474,
    "address": "Dharampeth, Nagpur, Maharashtra, India",
    "phone": "+91 9368968980",
    "rating": 4.5,
    "verified": false
  },
  {
    "id": 350,
    "name": "Mahal Scrap Recycling Center",
    "type": "scrap",
    "state": "Maharashtra",
    "district": "Nagpur",
    "city": "Nagpur",
    "pincode": "440002",
    "lat": 21.185167,
    "lng": 78.95552,
    "address": "Mahal, Nagpur, Maharashtra, India",
    "phone": "+91 9792400907",
    "rating": 3.9,
    "verified": true
  },
  {
    "id": 351,
    "name": "Nandanvan Glass Recycling Center",
    "type": "glass",
    "state": "Maharashtra",
    "district": "Nagpur",
    "city": "Nagpur",
    "pincode": "440009",
    "lat": 21.235861,
    "lng": 78.973583,
    "address": "Nandanvan, Nagpur, Maharashtra, India",
    "phone": "+91 9342445008",
    "rating": 4.8,
    "verified": false
  },
  {
    "id": 352,
    "name": "Itwari Metal Recycling Center",
    "type": "metal",
    "state": "Maharashtra",
    "district": "Nagpur",
    "city": "Nagpur",
    "pincode": "440002",
    "lat": 21.221398,
    "lng": 79.097562,
    "address": "Itwari, Nagpur, Maharashtra, India",
    "phone": "+91 9115696732",
    "rating": 4.7,
    "verified": true
  },
  {
    "id": 353,
    "name": "Trimurti Nagar Metal Recycling Center",
    "type": "metal",
    "state": "Maharashtra",
    "district": "Nagpur",
    "city": "Nagpur",
    "pincode": "440022",
    "lat": 21.111355,
    "lng": 78.981667,
    "address": "Trimurti Nagar, Nagpur, Maharashtra, India",
    "phone": "+91 9751562795",
    "rating": 3.9,
    "verified": false
  },
  {
    "id": 354,
    "name": "Sitabuldi Glass Recycling Center",
    "type": "glass",
    "state": "Maharashtra",
    "district": "Nagpur",
    "city": "Nagpur",
    "pincode": "440012",
    "lat": 21.195812,
    "lng": 79.172347,
    "address": "Sitabuldi, Nagpur, Maharashtra, India",
    "phone": "+91 9457807031",
    "rating": 4.7,
    "verified": true
  },
  {
    "id": 355,
    "name": "Kamptee Road Paper Recycling Center",
    "type": "paper",
    "state": "Maharashtra",
    "district": "Nagpur",
    "city": "Nagpur",
    "pincode": "440026",
    "lat": 21.143159,
    "lng": 79.195269,
    "address": "Kamptee Road, Nagpur, Maharashtra, India",
    "phone": "+91 9698019660",
    "rating": 4.1,
    "verified": false
  },
  {
    "id": 356,
    "name": "Besa Paper Recycling Center",
    "type": "paper",
    "state": "Maharashtra",
    "district": "Nagpur",
    "city": "Nagpur",
    "pincode": "440037",
    "lat": 21.050267,
    "lng": 79.174846,
    "address": "Besa, Nagpur, Maharashtra, India",
    "phone": "+91 9883386493",
    "rating": 4.3,
    "verified": false
  },
  {
    "id": 357,
    "name": "Mankapur Ewaste Recycling Center",
    "type": "ewaste",
    "state": "Maharashtra",
    "district": "Nagpur",
    "city": "Nagpur",
    "pincode": "440030",
    "lat": 21.069516,
    "lng": 79.11962,
    "address": "Mankapur, Nagpur, Maharashtra, India",
    "phone": "+91 9707731041",
    "rating": 4.3,
    "verified": false
  },
  {
    "id": 358,
    "name": "Dharampeth Scrap Recycling Center",
    "type": "scrap",
    "state": "Maharashtra",
    "district": "Nagpur",
    "city": "Nagpur",
    "pincode": "440010",
    "lat": 21.222786,
    "lng": 79.070316,
    "address": "Dharampeth, Nagpur, Maharashtra, India",
    "phone": "+91 9200291594",
    "rating": 4.5,
    "verified": true
  },
  {
    "id": 359,
    "name": "Besa Glass Recycling Center",
    "type": "glass",
    "state": "Maharashtra",
    "district": "Nagpur",
    "city": "Nagpur",
    "pincode": "440037",
    "lat": 21.159173,
    "lng": 79.095842,
    "address": "Besa, Nagpur, Maharashtra, India",
    "phone": "+91 9113544540",
    "rating": 4.7,
    "verified": false
  },
  {
    "id": 360,
    "name": "Itwari Ewaste Recycling Center",
    "type": "ewaste",
    "state": "Maharashtra",
    "district": "Nagpur",
    "city": "Nagpur",
    "pincode": "440002",
    "lat": 21.07843,
    "lng": 79.08637,
    "address": "Itwari, Nagpur, Maharashtra, India",
    "phone": "+91 9871305644",
    "rating": 4.5,
    "verified": true
  },
  {
    "id": 361,
    "name": "Sadar Plastic Recycling Center",
    "type": "plastic",
    "state": "Maharashtra",
    "district": "Nagpur",
    "city": "Nagpur",
    "pincode": "440001",
    "lat": 21.19334,
    "lng": 79.068634,
    "address": "Sadar, Nagpur, Maharashtra, India",
    "phone": "+91 9412194219",
    "rating": 4.5,
    "verified": false
  },
  {
    "id": 362,
    "name": "Koradi Road Metal Recycling Center",
    "type": "metal",
    "state": "Maharashtra",
    "district": "Nagpur",
    "city": "Nagpur",
    "pincode": "440030",
    "lat": 21.162399,
    "lng": 79.063062,
    "address": "Koradi Road, Nagpur, Maharashtra, India",
    "phone": "+91 9117369235",
    "rating": 3.9,
    "verified": true
  },
  {
    "id": 363,
    "name": "Trimurti Nagar Metal Recycling Center",
    "type": "metal",
    "state": "Maharashtra",
    "district": "Nagpur",
    "city": "Nagpur",
    "pincode": "440022",
    "lat": 21.059409,
    "lng": 78.990864,
    "address": "Trimurti Nagar, Nagpur, Maharashtra, India",
    "phone": "+91 9929923559",
    "rating": 4.5,
    "verified": true
  },
  {
    "id": 364,
    "name": "Manewada Paper Recycling Center",
    "type": "paper",
    "state": "Maharashtra",
    "district": "Nagpur",
    "city": "Nagpur",
    "pincode": "440024",
    "lat": 21.108468,
    "lng": 79.179603,
    "address": "Manewada, Nagpur, Maharashtra, India",
    "phone": "+91 9902502519",
    "rating": 3.9,
    "verified": true
  },
  {
    "id": 365,
    "name": "Pratap Nagar Metal Recycling Center",
    "type": "metal",
    "state": "Maharashtra",
    "district": "Nagpur",
    "city": "Nagpur",
    "pincode": "440022",
    "lat": 21.10186,
    "lng": 79.009603,
    "address": "Pratap Nagar, Nagpur, Maharashtra, India",
    "phone": "+91 9996827381",
    "rating": 4.3,
    "verified": false
  },
  {
    "id": 366,
    "name": "Pratap Nagar Ewaste Recycling Center",
    "type": "ewaste",
    "state": "Maharashtra",
    "district": "Nagpur",
    "city": "Nagpur",
    "pincode": "440022",
    "lat": 21.075035,
    "lng": 79.069464,
    "address": "Pratap Nagar, Nagpur, Maharashtra, India",
    "phone": "+91 9365411468",
    "rating": 4.3,
    "verified": false
  },
  {
    "id": 367,
    "name": "Mahal Plastic Recycling Center",
    "type": "plastic",
    "state": "Maharashtra",
    "district": "Nagpur",
    "city": "Nagpur",
    "pincode": "440002",
    "lat": 21.213412,
    "lng": 79.152548,
    "address": "Mahal, Nagpur, Maharashtra, India",
    "phone": "+91 9782484200",
    "rating": 4.6,
    "verified": false
  },
  {
    "id": 368,
    "name": "Mankapur Paper Recycling Center",
    "type": "paper",
    "state": "Maharashtra",
    "district": "Nagpur",
    "city": "Nagpur",
    "pincode": "440030",
    "lat": 21.236419,
    "lng": 78.956405,
    "address": "Mankapur, Nagpur, Maharashtra, India",
    "phone": "+91 9224762689",
    "rating": 4.4,
    "verified": false
  },
  {
    "id": 369,
    "name": "Wardhaman Nagar Metal Recycling Center",
    "type": "metal",
    "state": "Maharashtra",
    "district": "Nagpur",
    "city": "Nagpur",
    "pincode": "440008",
    "lat": 21.072169,
    "lng": 79.120587,
    "address": "Wardhaman Nagar, Nagpur, Maharashtra, India",
    "phone": "+91 9691712237",
    "rating": 4.7,
    "verified": true
  },
  {
    "id": 370,
    "name": "Sitabuldi Ewaste Recycling Center",
    "type": "ewaste",
    "state": "Maharashtra",
    "district": "Nagpur",
    "city": "Nagpur",
    "pincode": "440012",
    "lat": 21.145535,
    "lng": 78.975954,
    "address": "Sitabuldi, Nagpur, Maharashtra, India",
    "phone": "+91 9386260519",
    "rating": 4.7,
    "verified": false
  },
  {
    "id": 371,
    "name": "Hingna Glass Recycling Center",
    "type": "glass",
    "state": "Maharashtra",
    "district": "Nagpur",
    "city": "Nagpur",
    "pincode": "440016",
    "lat": 21.061071,
    "lng": 79.161361,
    "address": "Hingna, Nagpur, Maharashtra, India",
    "phone": "+91 9698706572",
    "rating": 3.9,
    "verified": true
  },
  {
    "id": 372,
    "name": "Sadar Scrap Recycling Center",
    "type": "scrap",
    "state": "Maharashtra",
    "district": "Nagpur",
    "city": "Nagpur",
    "pincode": "440001",
    "lat": 21.071814,
    "lng": 79.158338,
    "address": "Sadar, Nagpur, Maharashtra, India",
    "phone": "+91 9402233928",
    "rating": 3.8,
    "verified": true
  },
  {
    "id": 373,
    "name": "Dharampeth Scrap Recycling Center",
    "type": "scrap",
    "state": "Maharashtra",
    "district": "Nagpur",
    "city": "Nagpur",
    "pincode": "440010",
    "lat": 21.074393,
    "lng": 79.062958,
    "address": "Dharampeth, Nagpur, Maharashtra, India",
    "phone": "+91 9914492525",
    "rating": 3.9,
    "verified": true
  },
  {
    "id": 374,
    "name": "Jaripatka Ewaste Recycling Center",
    "type": "ewaste",
    "state": "Maharashtra",
    "district": "Nagpur",
    "city": "Nagpur",
    "pincode": "440014",
    "lat": 21.174553,
    "lng": 79.011086,
    "address": "Jaripatka, Nagpur, Maharashtra, India",
    "phone": "+91 9541379659",
    "rating": 4.4,
    "verified": true
  },
  {
    "id": 375,
    "name": "Mahal Metal Recycling Center",
    "type": "metal",
    "state": "Maharashtra",
    "district": "Nagpur",
    "city": "Nagpur",
    "pincode": "440002",
    "lat": 21.05579,
    "lng": 79.03834,
    "address": "Mahal, Nagpur, Maharashtra, India",
    "phone": "+91 9759935471",
    "rating": 3.9,
    "verified": true
  },
  {
    "id": 376,
    "name": "Sitabuldi Scrap Recycling Center",
    "type": "scrap",
    "state": "Maharashtra",
    "district": "Nagpur",
    "city": "Nagpur",
    "pincode": "440012",
    "lat": 21.121021,
    "lng": 79.113571,
    "address": "Sitabuldi, Nagpur, Maharashtra, India",
    "phone": "+91 9512760150",
    "rating": 3.6,
    "verified": false
  },
  {
    "id": 377,
    "name": "Mankapur Plastic Recycling Center",
    "type": "plastic",
    "state": "Maharashtra",
    "district": "Nagpur",
    "city": "Nagpur",
    "pincode": "440030",
    "lat": 21.093031,
    "lng": 79.001817,
    "address": "Mankapur, Nagpur, Maharashtra, India",
    "phone": "+91 9542184356",
    "rating": 4.9,
    "verified": false
  },
  {
    "id": 378,
    "name": "Manewada Metal Recycling Center",
    "type": "metal",
    "state": "Maharashtra",
    "district": "Nagpur",
    "city": "Nagpur",
    "pincode": "440024",
    "lat": 21.146777,
    "lng": 79.125503,
    "address": "Manewada, Nagpur, Maharashtra, India",
    "phone": "+91 9973988241",
    "rating": 3.8,
    "verified": true
  },
  {
    "id": 379,
    "name": "Mahal Plastic Recycling Center",
    "type": "plastic",
    "state": "Maharashtra",
    "district": "Nagpur",
    "city": "Nagpur",
    "pincode": "440002",
    "lat": 21.110043,
    "lng": 79.121435,
    "address": "Mahal, Nagpur, Maharashtra, India",
    "phone": "+91 9104097167",
    "rating": 4.6,
    "verified": true
  },
  {
    "id": 380,
    "name": "Koradi Road Metal Recycling Center",
    "type": "metal",
    "state": "Maharashtra",
    "district": "Nagpur",
    "city": "Nagpur",
    "pincode": "440030",
    "lat": 21.196774,
    "lng": 79.172023,
    "address": "Koradi Road, Nagpur, Maharashtra, India",
    "phone": "+91 9919243197",
    "rating": 3.8,
    "verified": true
  },
  {
    "id": 381,
    "name": "Sadar Ewaste Recycling Center",
    "type": "ewaste",
    "state": "Maharashtra",
    "district": "Nagpur",
    "city": "Nagpur",
    "pincode": "440001",
    "lat": 21.060401,
    "lng": 79.148891,
    "address": "Sadar, Nagpur, Maharashtra, India",
    "phone": "+91 9511716911",
    "rating": 3.6,
    "verified": true
  },
  {
    "id": 382,
    "name": "Manewada Ewaste Recycling Center",
    "type": "ewaste",
    "state": "Maharashtra",
    "district": "Nagpur",
    "city": "Nagpur",
    "pincode": "440024",
    "lat": 21.213531,
    "lng": 79.048045,
    "address": "Manewada, Nagpur, Maharashtra, India",
    "phone": "+91 9488931963",
    "rating": 4.2,
    "verified": false
  },
  {
    "id": 383,
    "name": "Sadar Plastic Recycling Center",
    "type": "plastic",
    "state": "Maharashtra",
    "district": "Nagpur",
    "city": "Nagpur",
    "pincode": "440001",
    "lat": 21.234929,
    "lng": 79.193093,
    "address": "Sadar, Nagpur, Maharashtra, India",
    "phone": "+91 9689626333",
    "rating": 4.9,
    "verified": false
  },
  {
    "id": 384,
    "name": "Dharampeth Metal Recycling Center",
    "type": "metal",
    "state": "Maharashtra",
    "district": "Nagpur",
    "city": "Nagpur",
    "pincode": "440010",
    "lat": 21.202978,
    "lng": 78.95591,
    "address": "Dharampeth, Nagpur, Maharashtra, India",
    "phone": "+91 9207663937",
    "rating": 4.0,
    "verified": true
  },
  {
    "id": 385,
    "name": "Sadar Paper Recycling Center",
    "type": "paper",
    "state": "Maharashtra",
    "district": "Nagpur",
    "city": "Nagpur",
    "pincode": "440001",
    "lat": 21.149175,
    "lng": 79.184501,
    "address": "Sadar, Nagpur, Maharashtra, India",
    "phone": "+91 9234386718",
    "rating": 3.9,
    "verified": false
  },
  {
    "id": 386,
    "name": "Wardhaman Nagar Ewaste Recycling Center",
    "type": "ewaste",
    "state": "Maharashtra",
    "district": "Nagpur",
    "city": "Nagpur",
    "pincode": "440008",
    "lat": 21.232388,
    "lng": 79.120462,
    "address": "Wardhaman Nagar, Nagpur, Maharashtra, India",
    "phone": "+91 9994638921",
    "rating": 5.0,
    "verified": true
  },
  {
    "id": 387,
    "name": "Mankapur Plastic Recycling Center",
    "type": "plastic",
    "state": "Maharashtra",
    "district": "Nagpur",
    "city": "Nagpur",
    "pincode": "440030",
    "lat": 21.090622,
    "lng": 79.162784,
    "address": "Mankapur, Nagpur, Maharashtra, India",
    "phone": "+91 9113178661",
    "rating": 4.9,
    "verified": true
  },
  {
    "id": 388,
    "name": "Kamptee Road Glass Recycling Center",
    "type": "glass",
    "state": "Maharashtra",
    "district": "Nagpur",
    "city": "Nagpur",
    "pincode": "440026",
    "lat": 21.05964,
    "lng": 79.030804,
    "address": "Kamptee Road, Nagpur, Maharashtra, India",
    "phone": "+91 9257114090",
    "rating": 3.6,
    "verified": false
  },
  {
    "id": 389,
    "name": "Sitabuldi Scrap Recycling Center",
    "type": "scrap",
    "state": "Maharashtra",
    "district": "Nagpur",
    "city": "Nagpur",
    "pincode": "440012",
    "lat": 21.24586,
    "lng": 79.097506,
    "address": "Sitabuldi, Nagpur, Maharashtra, India",
    "phone": "+91 9191839746",
    "rating": 4.0,
    "verified": true
  },
  {
    "id": 390,
    "name": "Kamptee Road Ewaste Recycling Center",
    "type": "ewaste",
    "state": "Maharashtra",
    "district": "Nagpur",
    "city": "Nagpur",
    "pincode": "440026",
    "lat": 21.225281,
    "lng": 79.019906,
    "address": "Kamptee Road, Nagpur, Maharashtra, India",
    "phone": "+91 9284693811",
    "rating": 4.8,
    "verified": true
  },
  {
    "id": 391,
    "name": "Kamptee Road Paper Recycling Center",
    "type": "paper",
    "state": "Maharashtra",
    "district": "Nagpur",
    "city": "Nagpur",
    "pincode": "440026",
    "lat": 21.072051,
    "lng": 79.07991,
    "address": "Kamptee Road, Nagpur, Maharashtra, India",
    "phone": "+91 9390987537",
    "rating": 4.5,
    "verified": true
  },
  {
    "id": 392,
    "name": "Itwari Glass Recycling Center",
    "type": "glass",
    "state": "Maharashtra",
    "district": "Nagpur",
    "city": "Nagpur",
    "pincode": "440002",
    "lat": 21.070578,
    "lng": 79.04425,
    "address": "Itwari, Nagpur, Maharashtra, India",
    "phone": "+91 9590182058",
    "rating": 4.6,
    "verified": true
  },
  {
    "id": 393,
    "name": "Kamptee Road Paper Recycling Center",
    "type": "paper",
    "state": "Maharashtra",
    "district": "Nagpur",
    "city": "Nagpur",
    "pincode": "440026",
    "lat": 21.144286,
    "lng": 79.186972,
    "address": "Kamptee Road, Nagpur, Maharashtra, India",
    "phone": "+91 9707625080",
    "rating": 4.1,
    "verified": false
  },
  {
    "id": 394,
    "name": "Sitabuldi Paper Recycling Center",
    "type": "paper",
    "state": "Maharashtra",
    "district": "Nagpur",
    "city": "Nagpur",
    "pincode": "440012",
    "lat": 21.212243,
    "lng": 78.954655,
    "address": "Sitabuldi, Nagpur, Maharashtra, India",
    "phone": "+91 9902969736",
    "rating": 4.5,
    "verified": true
  },
  {
    "id": 395,
    "name": "Manewada Plastic Recycling Center",
    "type": "plastic",
    "state": "Maharashtra",
    "district": "Nagpur",
    "city": "Nagpur",
    "pincode": "440024",
    "lat": 21.231355,
    "lng": 79.123735,
    "address": "Manewada, Nagpur, Maharashtra, India",
    "phone": "+91 9530238119",
    "rating": 3.6,
    "verified": false
  },
  {
    "id": 396,
    "name": "Manewada Ewaste Recycling Center",
    "type": "ewaste",
    "state": "Maharashtra",
    "district": "Nagpur",
    "city": "Nagpur",
    "pincode": "440024",
    "lat": 21.234659,
    "lng": 79.127787,
    "address": "Manewada, Nagpur, Maharashtra, India",
    "phone": "+91 9165274267",
    "rating": 4.8,
    "verified": false
  },
  {
    "id": 397,
    "name": "Wardhaman Nagar Glass Recycling Center",
    "type": "glass",
    "state": "Maharashtra",
    "district": "Nagpur",
    "city": "Nagpur",
    "pincode": "440008",
    "lat": 21.123474,
    "lng": 79.021032,
    "address": "Wardhaman Nagar, Nagpur, Maharashtra, India",
    "phone": "+91 9201050348",
    "rating": 4.3,
    "verified": true
  },
  {
    "id": 398,
    "name": "Trimurti Nagar Metal Recycling Center",
    "type": "metal",
    "state": "Maharashtra",
    "district": "Nagpur",
    "city": "Nagpur",
    "pincode": "440022",
    "lat": 21.224245,
    "lng": 79.111671,
    "address": "Trimurti Nagar, Nagpur, Maharashtra, India",
    "phone": "+91 9195482906",
    "rating": 3.8,
    "verified": false
  },
  {
    "id": 399,
    "name": "Besa Plastic Recycling Center",
    "type": "plastic",
    "state": "Maharashtra",
    "district": "Nagpur",
    "city": "Nagpur",
    "pincode": "440037",
    "lat": 21.071895,
    "lng": 79.004784,
    "address": "Besa, Nagpur, Maharashtra, India",
    "phone": "+91 9513239611",
    "rating": 4.0,
    "verified": false
  },
  {
    "id": 400,
    "name": "Mahal Glass Recycling Center",
    "type": "glass",
    "state": "Maharashtra",
    "district": "Nagpur",
    "city": "Nagpur",
    "pincode": "440002",
    "lat": 21.117243,
    "lng": 79.08345,
    "address": "Mahal, Nagpur, Maharashtra, India",
    "phone": "+91 9897600933",
    "rating": 4.0,
    "verified": false
  }
]